,매장명,매장주소,lat,lng
0,본 죽&비빔밥 전농뉴타운점,서울특별시 동대문구 답십리로 77 (전농동) 1층,37.575107,127.0496237
1,본 죽&비빔밥 가산디지털점,"서울특별시 금천구 가산디지털1로 186 (가산동, 제이플라츠) 104-2호",37.4819131,126.8815811
2,본 죽&비빔밥 회현역점,"서울특별시 중구 퇴계로 72 (회현동1가, 리더스뷰남산) 115호",37.5591477,126.9805573
3,본 죽&비빔밥 남성역점,"서울특별시 동작구 사당로 215 (사당동, 서림빌딩) 103호",37.484352,126.9723834
4,본설렁탕 구로디지털단지점,"서울특별시 구로구 디지털로31길 53 (구로동, 이앤씨벤처드림타워5차) 104호",37.4856903,126.8924453
5,본도시락 청담점,서울특별시 강남구 학동로101길 7(청담동) 2층,37.5209207,127.0576487
6,본 죽&비빔밥 논현점,"서울특별시 강남구 학동로4길 15 (논현동, 동화상가) 106호",37.5105207,127.0235534
7,본 죽&비빔밥 매봉역점,서울특별시 강남구 남부순환로378길 12 (도곡동),37.485436,127.0458602
8,본도시락 중곡점,서울특별시 중랑구 면목로 231-1 (면목동) 1층,37.5737581,127.0844487
9,본 죽&비빔밥 보라매역점,서울특별시 동작구 여의대방로24가길 8 (대방동) 1층,37.4985771,126.9210569
10,본도시락 수락산역점,"서울특별시 노원구 동일로 1701 (상계동, 희성오피앙) 1층",37.6803112,127.0549036
11,본도시락 마포역점,서울특별시 마포구 토정로 317 (용강동) 1층,37.5397904,126.9440814
12,본 죽&비빔밥 숭실대역점,서울특별시 동작구 상도로 351 (상도동) 1층,37.4973456,126.9530245
13,본설렁탕 위례점,서울특별시 송파구 장지동 896 위례중앙푸르지오2단지 제상가동 제1층 제124호,37.4747699,127.1428247
14,본도시락 문정법조타운점,"서울특별시 송파구 충민로 5 (문정동, 송파한화오벨리스크) 119호",37.4801299,127.1196368
15,(취소)본 죽&비빔밥 구의시장점,서울특별시 광진구 광나루로 532 (구의동) 1층,37.5447054,127.0885125
16,본 죽&비빔밥 오목교역점,서울특별시 양천구 신목로 83 (신정동) 1층,37.5222954,126.8741389
17,본 죽&비빔밥 종로르메이에르점,"서울특별시 종로구 종로 19 (종로1가, 르메이에르종로타운1) B1층",37.5708345,126.9798606
18,본 죽&비빔밥 행당동점,서울특별시 성동구 행당로 101 (행당동) 1층,37.5578364,127.0301474
19,본설렁탕 문래점,"서울특별시 영등포구 선유로13길 25 (문래동6가, 에이스하이테크시티2) 117호",37.5189767,126.8862918
20,본 죽&비빔밥 응암오거리점,서울특별시 은평구 가좌로 245-1 (응암동) 1층,37.5911969,126.9154993
21,본 죽&비빔밥 충무로역점,서울특별시 중구 서애로1길 11 (충무로5가) 충무로헤센스마트아파트상가 1층 B125호,37.5613426,126.9985981
22,본도시락 압구정역점,서울특별시 강남구 압구정로18길 12 (신사동) 1층,37.5240699,127.0244887
23,본도시락 홍대점,"서울특별시 마포구 홍익로 10 (서교동, 서교푸르지오) B107호",37.5538,126.9237
24,본도시락 길동점,"서울특별시 강동구 진황도로 123 (길동, 광남캐스빌아파트201) 1층",37.5347954,127.1399922
25,본도시락 왕십리점,"서울특별시 성동구 마장로 137 (상왕십리동, 텐즈힐) 221동 1층 185호",37.5692575,127.0248134
26,본 죽&비빔밥 용산센트럴점,"서울특별시 용산구 한강대로 95 (한강로2가, 래미안용산 더 센트럴) 지하 148호",37.5290927,126.9668857
27,본도시락 마곡점,"서울특별시 강서구 강서로 411 (마곡동, 마곡에비앙) 108호",37.5624067,126.8390411
28,본도시락 오목교점,"서울특별시 양천구 목동서로 285 (신정동, 황금 프라자) 109호",37.5218487,126.8691433
29,본 죽&비빔밥 상일2동점,"서울특별시 강동구 상일로6길 39 (상일동, 강동타워) 1층",37.5498543,127.175374
30,본 죽&비빔밥 신림역점,서울특별시 관악구 신림로 309 (신림동) 1층,37.4820185,126.9296546
31,본설렁탕 상암DMC점,"서울특별시 마포구 월드컵북로54길 17 (상암동, 사보이시티디엠씨) B113호",37.5813386,126.8885633
32,본 죽&비빔밥 길음뉴타운점,"서울특별시 성북구 길음로 74 (길음동, 길음뉴타운) 길음뉴타운상가 2동 108호",37.6100532,127.0205837
33,본도시락 이수점,서울특별시 서초구 동광로 8 (방배동) 1층,37.4907502,126.9837065
34,본도시락 명동점,"서울특별시 중구 퇴계로20길 2 (남산동2가, 퍼시픽호텔) 1층",37.5598576,126.985374
35,본도시락 도곡동점,서울특별시 강남구 논현로34길 21 (도곡동) 1층 102호,37.484772,127.0436843
36,본도시락 가산점,"서울특별시 금천구 벚꽃로56길 182 (가산동, 램킨푸르지오시티) 106호",37.4796661,126.8883025
37,본도시락 방화점,서울특별시 강서구 양천로 85 (방화동) 1층,37.5736342,126.8132902
38,본도시락 신림점,서울특별시 관악구 신림동길 31-1 (신림동) 1층,37.486781,126.9252244
39,본 죽&비빔밥 하계점,"서울특별시 노원구 노원로 248 (하계동, 삼정 이오니아) 106호",37.6399219,127.0738098
40,본 죽&비빔밥 송정역점,서울특별시 강서구 공항대로 36 (공항동) 101호,37.5610175,126.8111431
41,본도시락 신사역점,서울특별시 강남구 압구정로2길 35 (신사동) 1층,37.5195528,127.0206216
42,본도시락 종로구청점,"서울특별시 종로구 삼봉로 81 (수송동, 두산위브파빌리온) 1층 115호",37.5725619,126.9815061
43,본 죽&비빔밥 신반포점,"서울특별시 서초구 반포대로 287 (반포동, 래미안퍼스티지 중심상가) 1층",37.5043414,127.0010992
44,본 죽&비빔밥 녹번점,서울특별시 은평구 은평로 240 (응암동) 힐스테이트 녹번역 근린생활시설 218호,37.6004227,126.934997
45,본 죽&비빔밥 북아현점,"서울특별시 서대문구 신촌로35길 10 (북아현동, 이편한세상신촌) 402동 B401호",37.5586219,126.9558605
46,본도시락 상일점,서울특별시 강동구 상일로12길 99 (상일동) 리엔프라자 1층101호,37.5568528,127.1729373
47,본 죽&비빔밥 연신갈현점,서울특별시 은평구 통일로83길 6-4 (갈현동) 1층,37.6212625,126.9192796
48,본 죽&비빔밥 홍은1동점,서울특별시 서대문구 홍은중앙로 103 (홍은동) 1층,37.5997995,126.9485332
49,본 죽&비빔밥 학동역점,"서울특별시 강남구 학동로 165 (논현동, 마일스디오빌) 1층",37.5137746,127.0290436
50,본 죽&비빔밥 개봉점,서울특별시 구로구 남부순환로97길 11 (개봉동) 1층,37.4942568,126.8583773
51,본 죽&비빔밥 구로디지털역점,서울특별시 구로구 시흥대로 557 (구로동) 1층,37.4829989,126.9010632
52,본 죽&비빔밥 구의점,"서울특별시 광진구 자양로 113 (자양동, 구의 현대 하이엘) 102호",37.5378939,127.0829911
53,본 죽&비빔밥 외대점,서울특별시 동대문구 이문로 100 (이문동) 1층,37.5957043,127.0599731
54,본 죽&비빔밥 서초내곡점,"서울특별시 서초구 청계산로9길 70 (내곡동, 내곡 SH 플라자) 102호",37.4534624,127.0597967
55,본설렁탕 문정역점,"서울특별시 송파구 법원로 114 (문정동, 엠스테이트) B163호",37.4857987,127.1206993
56,본 죽&비빔밥 등촌공항대로점,서울특별시 강서구 공항대로61길 14 (염창동) 1층,37.5516192,126.8656056
57,본설렁탕 성수역점,"서울특별시 성동구 아차산로 126 (성수동2가, 더리브 세종타워) 107호",37.5434989,127.058054
58,본 죽&비빔밥 고대구로병원점,서울특별시 구로구 구로동로29길 3 (구로동) 1층,37.4910354,126.8836519
59,본도시락 성수점,"서울 성동구 성수일로10길 26 (성수동2가, 하우스디 세종타워) 상가동 109호",37.5465698,127.0529437
60,본 죽&비빔밥 상도점,서울특별시 동작구 양녕로26길 6 (상도동) 1층,37.498081,126.9440038
61,본 죽&비빔밥 목동사거리점,"서울 양천구 등촌로 32 (목동, 목동 태영프라자) 104호",37.5328886,126.8641657
62,본 죽&비빔밥 신촌점,서울 서대문구 연세로 20 (창천동) 2층,37.5574794,126.9370688
63,본 죽&비빔밥 서울금호점,서울 성동구 독서당로 311 (금호동3가) 1층,37.5483137,127.0234893
64,본도시락 수유점,서울 강북구 한천로 1023 (번동) 1층,37.6390395,127.0278786
65,본도시락 한남점,"서울 용산구 독서당로 22 (한남동, 동원베네스트) 107호",37.5301631,127.0078018
66,본 죽&비빔밥 구로항동점,"서울 구로구 서해안로 2104 (항동, 엠프라자) 108호",37.4803525,126.8236668
67,본 죽&비빔밥 마포롯데캐슬점,"서울 마포구 마포대로 109 (공덕동, 롯데캐슬프레지던트) 롯데캐슬프레지던트상가 지하1층 13-1호",37.5450054,126.9512549
68,본도시락 삼성점,"서울특별시 강남구 테헤란로77길 13 (삼성동, 창조빌딩) 1층",37.5073178,127.0543052
69,본 죽&비빔밥 돈암동점,서울특별시 성북구 아리랑로 6-1 (동선동4가),37.5934255,127.0165012
70,본설렁탕 영등포양평역점,"서울특별시 영등포구 양산로 53 (양평동3가, 월드메르디앙비즈센터) 105호",37.5256528,126.8889554
71,본 죽&비빔밥 옥수점,"서울 성동구 한림말3길 15 (옥수동, 국민약국) 1층",37.542448,127.0156923
72,본죽 신당동점,서울 중구 다산로36길 30 (신당동) 1층,37.5621243,127.0166596
73,본도시락 고려대점,서울 성북구 안암로 63 (안암동5가) 1층,37.5822931,127.0286111
74,본 죽&비빔밥 여의도역점,"서울 영등포구 여의나루로 42 (여의도동, 여의도종합상가) 203,204호",37.5214704,126.9249738
75,본죽 동묘앞역점,서울 종로구 지봉로 52-1 (숭인동) 1층,37.5747174,127.0158837
76,본도시락 홍은점,"서울 서대문구 홍은중앙로3길 9 (홍은동, 북한산 두산위브) 1층",37.598222,126.9452041
77,본 죽&비빔밥 은평신사점,서울 은평구 은평로 23 (신사동) 1층,37.5981745,126.9103988
78,본 죽&비빔밥 태릉입구역점,"서울특별시 노원구 동일로 992 (공릉동, 대화빌딩) 1층",37.6188116,127.0756183
79,본설렁탕 은평뉴타운점,"서울 은평구 진관2로 29-21 (진관동, 드림스퀘어) 102호",37.6357288,126.9193479
80,본 죽&비빔밥 여의홍우점,"서울 영등포구 국제금융로 78 (여의도동, 홍우빌딩) 214,215호",37.5208744,126.9313093
81,본도시락 선릉점,"서울특별시 강남구 선릉로82길 5 (대치동, 캥거루 빌딩)",37.5025747,127.0505248
82,본 죽&비빔밥 강남구청역점,서울 강남구 논현동 112-3 1층,37.5174526,127.0389939
83,본도시락 영등포문래점,"서울특별시 영등포구 선유로13길 25 (문래동6가, 에이스하이테크시티2) 에이스하이테크시티 2차 105호",37.5189767,126.8862918
84,본 죽&비빔밥 종로5가점,서울특별시 종로구 종로 199-1 (종로4가),37.5711459,126.9998741
85,본 죽&비빔밥 합정역점,"서울 마포구 양화로 73 (서교동, 체리스빌딩) 102호",37.5514445,126.9159344
86,본죽 만리점,"서울 중구 만리재로 175 (만리동2가, 서울역센트럴자이) 402동 109호",37.5548629,126.9644863
87,본 죽&비빔밥 제기동역점,"서울특별시 동대문구 정릉천동로 58 (용두동, 롯데캐슬피렌체) 133호",37.5772496,127.0357739
88,본도시락 충무로점,서울특별시 중구 수표로2길 7 (충무로3가),37.5622167,126.990928
89,본 죽&비빔밥 장안동점,"서울특별시 동대문구 장안벚꽃로 107 (장안동, 장안현대홈타운) 117호",37.5694827,127.0747898
90,본 죽&비빔밥 사당연세사랑병원점,"서울특별시 서초구 효령로 22 (방배동, 멤버스뷰) 1층",37.4774345,126.9875091
91,본 죽&비빔밥 봉화산역점,"서울특별시 중랑구 신내로 211 (신내동, 금강리빙스텔) 117호",37.6163597,127.0927002
92,본 죽&비빔밥 공릉원자력병원점,"서울특별시 노원구 공릉로46길 6 (공릉동, 현대프라자) 101호",37.6269386,127.0795663
93,본 죽&비빔밥 구로디지털포스트1차점,"서울 구로구 디지털로 288 (구로동, 대륭포스트타워1차) 109호",37.4837318,126.8953657
94,본도시락 노원점,"서울 노원구 동일로218길 25 (상계동, 석창빌딩) 104호",37.6539732,127.0622651
95,본도시락 신촌점,서울특별시 서대문구 연세로7안길 45 (창천동) 1층,37.558247,126.9342758
96,본 죽&비빔밥 화랑대역점,"서울특별시 노원구 노원로1길 67 (공릉동, 대덕프라자) 104호",37.6208327,127.0836582
97,본 죽&비빔밥 성수힐스테이트점,서울 성동구 성수일로4길 37 (성수동2가) 1층,37.5421465,127.0529522
98,본도시락 가락본동점,서울특별시 송파구 오금로36길 41 (가락동) 1층,37.5001481,127.1234546
99,본 죽&비빔밥 잠실레이크팰리스점,"서울 송파구 석촌호수로 138 (삼전동, 유시에셋) 1층",37.5070577,127.092279
100,본 죽&비빔밥 신사점,서울 강남구 도산대로11길 5 (신사동) 2층,37.5178614,127.0222931
101,본 죽&비빔밥 보라매점,"서울특별시 동작구 보라매로5길 43 (신대방동, 보라매삼성쉐르빌) 105호",37.4914777,126.9234164
102,본 죽&비빔밥 길음역점,"서울특별시 성북구 동소문로 248 (길음동, 삼부아파트) 삼부아파트상가 105동 13.14호",37.6026982,127.0236736
103,본 죽&비빔밥 경복궁역점,서울특별시 종로구 자하문로2길 1 (통의동) 1층,37.5766438,126.9727808
104,본 죽&비빔밥 역삼특허청점,"서울특별시 강남구 테헤란로14길 8 (역삼동, 강남역두산위브센티움) B107호",37.4986601,127.0329497
105,본도시락 광운대역점,"서울특별시 노원구 석계로18길 23 (월계동, 삼능스페이스향) 삼능스페이스향 108호",37.6239685,127.0607355
106,본죽 경희대점,서울특별시 동대문구 회기로 143 (회기동),37.5917349,127.052477
107,본도시락 마곡나루점,"서울특별시 강서구 마곡중앙5로1길 25 (마곡동, 마곡헤리움2차) 1층",37.5692784,126.8261367
108,본 죽&비빔밥 쌍문점,"서울 도봉구 도당로 14 (쌍문동, 다보빌딩) 1층",37.659492,127.0352013
109,본 죽&비빔밥 창동점,서울 도봉구 노해로63가길 12 (창동),37.6531966,127.0452685
110,본도시락 방학사거리점,서울특별시 도봉구 방학로 106 (방학동),37.6630372,127.0404891
111,본도시락 서울시청점,서울특별시 중구 세종대로 66-5 (태평로2가),37.5622394,126.976811
112,본도시락 상봉점,"서울특별시 중랑구 동일로 676 (면목동, 삼경빌딩)",37.5906605,127.0803954
113,본 죽&비빔밥 양재은광여고점,"서울특별시 강남구 남부순환로361길 9 (도곡동, 천성빌딩)",37.4856367,127.0370712
114,본도시락 은평뉴타운점,"서울특별시 은평구 진관2로 19 (진관동, 휴먼프라자I) 119호",37.6348572,126.9195953
115,본도시락 강남구청역점,"서울특별시 강남구 선릉로 649 (논현동, 대훈빌딩)",37.5145076,127.0420276
116,본 죽&비빔밥 선유도역점,서울특별시 영등포구 양평로 113 (양평동4가),37.5372436,126.8947718
117,본 죽&비빔밥 대흥역점,"서울특별시 마포구 대흥로 79 (대흥동, 동양엔파트) 상가동 108호",37.547484,126.9412488
118,본 죽&비빔밥 상일동역점,"서울특별시 강동구 고덕로 385 (고덕동, 고덕그라시움아파트(상가4동)) 고덕그라시움 4-복합상가동 215호",37.5573672,127.1684125
119,본 죽&비빔밥 연세세브란스빌딩점,"서울특별시 중구 통일로 10 (남대문로5가, 연세대학교세브란스빌딩) 지하 1층",37.5570913,126.9736575
120,본 죽&비빔밥 장승배기역점,"서울특별시 동작구 장승배기로11가길 11 (상도동, 상도파크자이) 1층",37.5058647,126.9384711
121,본 죽&비빔밥 가산테라타워점,서울특별시 금천구 디지털로10길 78 (가산동) 가산테라타워 1층 122호,37.4745451,126.8897367
122,본 죽&비빔밥 세곡점,"서울특별시 강남구 헌릉로569길 9 (세곡동, 강남지웰파인즈) 106호",37.4667896,127.1007772
123,본 죽&비빔밥 마곡나루역점,"서울특별시 강서구 마곡중앙로 161-8 (마곡동, 두산더랜드파크) A동 105호",37.5688514,126.8273386
124,본도시락 고대구로병원점,서울특별시 구로구 구로동로25길 21 (구로동),37.4904803,126.8827825
125,본도시락 신내점,"서울특별시 중랑구 신내역로 213 (신내동, 신내우디안프라자) 103호",37.6198603,127.106475
126,본도시락 보라매점,서울특별시 동작구 상도로 42 (대방동) 1층 2호,37.4996018,126.9251751
127,본도시락 위례중앙점,"서울특별시 송파구 위례광장로 120 (장지동, 위례중앙푸르지오1단지) B05-1",37.4748656,127.1415892
128,본 죽&비빔밥 충정로브라운스톤점,"서울특별시 중구 청파로 464 (중림동, 브라운스톤서울) 110호",37.5609183,126.9683304
129,본도시락 공릉점,"서울특별시 노원구 공릉로46길 18 (공릉동, 윤탁노블레스) 103호",37.6272157,127.0800055
130,본 죽&비빔밥 숙대입구역점,서울특별시 용산구 청파로47길 21 (청파동2가),37.5446912,126.9692113
131,본 죽&비빔밥 한남순천향병원점,"서울특별시 용산구 대사관로 63 (한남동, 한남치과)",37.5334811,127.0052868
132,본도시락 동국대점,서울특별시 중구 퇴계로50가길 6-9 (묵정동),37.5611813,127.0015433
133,본도시락 동여의도점,"서울특별시 영등포구 여의대방로70길 7 (여의도동, 한송빌딩) 1층",37.5189705,126.932984
134,본 죽&비빔밥 삼성역점,"서울특별시 강남구 테헤란로88길 10 (대치동, 신안메트로칸) B109",37.5068487,127.0594706
135,본 죽&비빔밥 포이점,"서울특별시 서초구 마방로10길 18-1 (양재동, 남광빌딩)",37.4764474,127.0437251
136,본 죽&비빔밥 낙성대점,서울특별시 관악구 솔밭로 2 (봉천동),37.4778443,126.9626883
137,본죽 수락산역점,"서울특별시 노원구 동일로 1701 (상계동, 희성오피앙) 1층 108호",37.6803112,127.0549036
138,본도시락 미아사거리점,서울특별시 성북구 종암로40길 42 (하월곡동),37.6098246,127.0323907
139,본도시락 서울역점,"서울특별시 용산구 한강대로 351 (동자동, 미즈헤어)",37.5496231,126.9715181
140,본 죽&비빔밥 중앙대점,서울특별시 동작구 흑석로 91 (흑석동),37.5074209,126.9597493
141,본 죽&비빔밥 굽은다리역점,"서울특별시 강동구 상암로 195 (명일동, 에이플러스) 에이플러스 제1층 105호",37.5466253,127.1441985
142,본도시락 공덕역점,"서울특별시 마포구 백범로 205 (신공덕동, 마포펜트라우스)",37.5433349,126.953799
143,본 죽&비빔밥 노원점,"서울특별시 노원구 동일로217가길 35 (상계동, 보람빌딩)",37.6531273,127.0584492
144,본 죽&비빔밥 관악구청점,"서울특별시 관악구 관악로 144 (봉천동, 우남네오폴리스) 1층 106호",37.4779433,126.9526208
145,본 죽&비빔밥 대치롯데점,"서울특별시 강남구 도곡로 405 (대치동, 삼환 아르누보2) A동 104호",37.4973826,127.0547242
146,본도시락 일원점,서울특별시 강남구 일원로9길 30 (일원동) 104호,37.4899538,127.0841188
147,본도시락 구로역점,서울특별시 구로구 구로중앙로 223 (구로동),37.5054551,126.8765387
148,본 죽&비빔밥 관악우체국점,"서울특별시 관악구 남부순환로 1637 (신림동, 건중빌딩)",37.4849078,126.9326408
149,본도시락 목동점,서울특별시 양천구 신월로 370 (신정동) 1층,37.5219407,126.8621633
150,본 죽&비빔밥 노량진점,"서울특별시 동작구 만양로 81 (노량진동, 문화독서실)",37.5108098,126.9444594
151,본죽 신대방역점,서울특별시 관악구 신사로 94 (신림동),37.4866677,126.913178
152,본 죽&비빔밥 명일동점,서울특별시 강동구 동남로73길 13 (명일동) 104호,37.5527561,127.1554486
153,본 죽&비빔밥 은평뉴타운점,"서울특별시 은평구 진관3로 11 (진관동, 은평뉴타운힐데스하임) 101동 106호",37.6394039,126.9182748
154,본도시락 서소문점,"서울특별시 서대문구 서소문로 27 (충정로3가, 충정리시온) 109호",37.5603171,126.964858
155,본죽 동부이촌동점,"서울특별시 용산구 이촌로 182 (이촌동, 기업은행) 115호",37.5212305,126.9673853
156,본죽 노원7단지점,"서울특별시 노원구 상계로1길 14-11 (상계동, 하이웰빙상가) 1층",37.6569219,127.0618369
157,본 죽&비빔밥 덕성여대점,서울특별시 도봉구 삼양로 534 (쌍문동),37.6507356,127.0133854
158,본도시락 종로3가점,서울특별시 중구 을지로9길 16 (수표동),37.5670158,126.9885202
159,본죽 등촌역점,"서울특별시 양천구 등촌로 206 (목동, 한울팰리스)",37.5480729,126.8635119
160,본 죽&비빔밥 은평성모병원점,"서울특별시 은평구 진관1로 21-39 (진관동, 메이플카운티)",37.6338708,126.9185774
161,본죽 상암하늘초교점,"서울특별시 마포구 월드컵북로 502 (상암동, 월드컵파크 프라자) 월드컵파크프라자 1층 113호",37.5850443,126.8798702
162,본 죽&비빔밥 창4동점,"서울특별시 도봉구 노해로69길 26 (창동, 창동시티월드) 창동씨티월드 1층",37.6536875,127.0509513
163,본 죽&비빔밥 문래홈플러스점,"서울특별시 영등포구 당산로 34 (문래동3가, 로데오 왘 쇼핑몰) 103호",37.5174632,126.8964938
164,본죽 고덕래미안점,서울특별시 강동구 동남로81길 94 (고덕동) 1층,37.5589391,127.152014
165,본 죽&비빔밥 신방화역점,"서울특별시 강서구 마곡중앙5로 81 (마곡동, 에스비타운)",37.567121,126.8185936
166,본도시락 이대점,서울특별시 서대문구 이화여대5길 15 (대현동),37.5582892,126.9447731
167,본 죽&비빔밥 우장산역점,"서울특별시 강서구 강서로 247 (화곡동, 선왕주내과의원) 1006-2호 1층 8호",37.547796,126.8360474
168,본도시락 금천구청점,"서울특별시 금천구 시흥대로 251 (시흥동, 도일산호시티빌)",37.4561082,126.8995727
169,본 죽&비빔밥 용문동점,서울특별시 용산구 새창로 106 (용문동),37.5379701,126.959862
170,본 죽&비빔밥 신도림점,서울특별시 구로구 경인로59길 8 (신도림동) 태영프라자 112호,37.5064034,126.8833762
171,본죽 은평뉴타운2지구점,"서울특별시 은평구 진관2로 77 (진관동, 은평뉴타운우물골) 206동 B111호",37.634604,126.9277837
172,본죽 대림역점,서울특별시 영등포구 도림로 124 (대림동) 대림2동 1116-1 102호,37.4922949,126.8962383
173,본 죽&비빔밥 이수점,서울특별시 동작구 동작대로27길 23 (사당동),37.487447,126.9806752
174,본죽 신금호역점,서울특별시 성동구 금호산길 66-1 (금호동2가),37.554059,127.0196887
175,본 죽&비빔밥 용산역아이파크몰점,"서울특별시 용산구 한강대로23길 55 (한강로3가, 용산역) 용산역사 아이파크몰 4층",37.5297718,126.9647415
176,본죽 강동성심병원점,"서울특별시 강동구 성안로 155 (천호동, 강동역두산위브센티움) 101호",37.537231,127.1347625
177,본죽 방배상문고점,서울특별시 서초구 명달로 49,37.4817579,127.004721
178,본죽 남구로역점,서울특별시 구로구 디지털로31길 120 한신휴플러스아파트,37.4886875,126.8905999
179,본죽 명일역점,서울특별시 강동구 양재대로 1626 (명일동) 1층 103호,37.5506521,127.1443104
180,본죽 신풍역점,"서울특별시 영등포구 신풍로 77 (신길동, 래미안에스티움) B동 111호",37.5010387,126.9137134
181,본죽 번동점,서울특별시 강북구 오현로32길 28 금영빌딩,37.6280232,127.0406846
182,본죽 송파점,서울특별시 송파구 가락로 176 (송파동) 경진빌딩 1층,37.5042203,127.1145662
183,본죽 청담프리마점,서울특별시 강남구 도산대로 521 (청담동),37.5248741,127.0504024
184,본죽 공릉점,"서울특별시 노원구 섬밭로 134 (공릉동, 풍림아파트) B상가 114동",37.6284968,127.0693483
185,본 죽&비빔밥 연신내점,서울특별시 은평구 연서로 252 (불광동),37.6194786,126.9229341
186,본도시락 수서역점,서울특별시 강남구 광평로 280 로즈데일오피스텔 B02 16호,37.4873192,127.103108
187,본도시락 봉은사역점,서울특별시 강남구 봉은사로108길 5,37.5143637,127.0637774
188,본죽 올림픽점,서울특별시 송파구 양재대로 1222 (방이동) 중심상가1층 210호,37.515729,127.1310643
189,본 죽&비빔밥 둔촌보훈병원점,서울특별시 강동구 진황도로 189 (둔촌동) 1층 101호,37.5294493,127.1433454
190,본 죽&비빔밥 구산역점,"서울 은평구 서오릉로 134 (대조동, 메디칼) 1층",37.6110266,126.9181024
191,본도시락 북한산힐스테이트7차점,서울특별시 은평구 통일로 796 북한산 힐스테이트 7차,37.6160938,126.9264534
192,본죽 돌곶이역점,서울특별시 성북구 돌곶이로 65 (석관동),37.6095199,127.0582198
193,본죽 상계백병원점,서울특별시 노원구 동일로 1356 상계주공아파트 4단지상가 1층,37.6504505,127.0634916
194,본죽 월계점,"서울특별시 노원구 월계로 370, 희성프라자 126호",37.6310464,127.0609491
195,본 죽&비빔밥 오류점,서울특별시 구로구 경인로 203-1 (오류동),37.496133,126.8435098
196,본 죽&비빔밥 가양점,"서울특별시 강서구 양천로 564 (등촌동, 등촌동두산위브센티움) 106호",37.5570639,126.8613201
197,본죽 테크노마트점,서울특별시 광진구 광나루로56길 63 프라임프라자 1층 115호,37.5367895,127.096155
198,본도시락 화곡점,서울특별시 강서구 가로공원로 186 (화곡동) 101호,37.5368621,126.8366942
199,본죽 인사동점,서울특별시 종로구 인사동길 51-2 (관훈동) 2층,37.574684,126.9838841
200,본도시락 교대역점,서울특별시 서초구 서초대로54길 15,37.4934522,127.0161427
201,본죽 금천롯데캐슬점,서울특별시 금천구 벚꽃로 40 (독산동) 롯데캐슬골드파크1차 113동 113호,37.4599082,126.8939352
202,본죽 위례중앙점,"서울특별시 송파구 위례광장로 136 (장지동, 위례아이파크) 위례아이파크3동 C137호",37.476495,127.1422214
203,본죽 신정네거리역점,서울특별시 양천구 중앙로 254 (신정동) 신정화산빌딩 1층 10호,37.5191659,126.853621
204,본도시락 양재점,서울특별시 서초구 강남대로43길 23 (서초동),37.4873134,127.0310599
205,본 죽&비빔밥 성신여대점,서울특별시 성북구 보문로34길 51 (동선동1가) 1층,37.5909311,127.018132
206,본도시락 남부터미널점,"서울특별시 서초구 서초중앙로 42 (서초동, 블루핀타워) B105호",37.4858725,127.0162758
207,본죽 평창점,서울특별시 종로구 평창12길 3 (평창동) 220번지 나라빌딩 1층,37.6061821,126.9672314
208,본도시락 대치은마점,서울특별시 강남구 도곡로 521 (대치동),37.50003,127.0632457
209,본죽 신정점,서울특별시 양천구 은행정로 16 (신정동) 신정동 1019-2,37.5210776,126.8599516
210,본 죽&비빔밥 발산사거리점,"서울특별시 강서구 공항대로 269-15 (마곡동, 힐스테이트에코마곡) 105호",37.5596114,126.8372423
211,본 죽&비빔밥 고려대점,서울특별시 성북구 고려대로 90 (안암동5가) 2층,37.5861398,127.0292445
212,본죽 강서구청점,서울특별시 강서구 공항대로 382 우장산롯데캐슬아파트 상가 111-1,37.5556299,126.8481784
213,본죽 내발산점,"서울특별시 강서구 수명로 68-35 (내발산동, 웨스트엔드중정) 1층",37.5529875,126.8267708
214,본죽 동부시장점,서울특별시 중랑구 망우로32길 20 (상봉동) 107호,37.5929988,127.0764914
215,본도시락 디지털미디어시티역점,"서울특별시 은평구 수색로 191 두빌191, 1층",37.5782607,126.9010885
216,본도시락 신설동역점,서울특별시 동대문구 왕산로 9-1 (신설동),37.576337,127.0246299
217,본죽 성수역점,서울특별시 성동구 아차산로7길 15 (성수동2가) 1층,37.546625,127.0546176
218,본 죽&비빔밥 장지파인타운점,"서울특별시 송파구 충민로2길 24 (장지동, 리더스프라자) 101호",37.4776424,127.1272823
219,본 죽&비빔밥 잠실점,서울특별시 송파구 올림픽로35길 112 장미아파트 비상가 1동 104호,37.517819,127.1017233
220,본 죽&비빔밥 불광역아울렛점,서울특별시 은평구 불광로 16 (대조동) 1층,37.6096838,126.9282527
221,본죽 개롱역점,"서울특별시 송파구 오금로 414 (가락동, 명문빌딩) 104호",37.4972177,127.1359335
222,본도시락 서대문점,"서울특별시 서대문구 통일로 149-1 ,1층(냉천동)",37.5675317,126.9646453
223,본도시락 방배역점,서울특별시 서초구 방배중앙로 58,37.4848532,126.9908296
224,본 죽&비빔밥 영등포시장역점,서울특별시 영등포구 영등포로 219 (영등포동5가),37.5201519,126.9058157
225,본 죽&비빔밥 목동파라곤점,"서울특별시 양천구 목동서로 155 (목동, 목동파라곤) B1-15호",37.5299683,126.8752425
226,본죽 길동시장점,서울특별시 강동구 양재대로116길 20 (길동),37.538364,127.1414531
227,본죽 동양대학점,서울특별시 구로구 경인로47길 6 (고척동) 1층,37.5000124,126.867356
228,본도시락 명일동점,서울특별시 강동구 양재대로 147길13 1층,37.5521949,127.1432395
229,본도시락 서래마을점,"서울특별시 서초구 동광로39길 68 (반포동, 삼덕빌딩) 1층",37.4980402,126.9998044
230,본도시락 중앙대점,서울특별시 동작구 흑석로 81-4 (흑석동),37.5072239,126.958712
231,본 죽&비빔밥 망원역점,서울특별시 마포구 망원로 85 (망원동),37.5577328,126.9061388
232,본 죽&비빔밥 건대점,서울특별시 광진구 능동로 95 (자양동) 2층,37.5395252,127.0701644
233,본죽 망우동점,서울특별시 중랑구 망우로 467,37.6008007,127.1038732
234,본죽 잠원점,서울특별시 서초구 나루터로 42 (잠원동) 본죽,37.5149088,127.0144046
235,본죽 중화역점,서울특별시 중랑구 봉화산로 36 (중화동),37.6014397,127.0783619
236,본죽 신림푸르지오점,서울특별시 금천구 남부순환로 1432 (독산동) 푸르지오상가 109호,37.4806043,126.909729
237,본도시락 구의점,서울특별시 광진구 구의강변로 106 삼성쉐르빌,37.5399301,127.0948406
238,본 죽&비빔밥 시흥사거리점,서울특별시 금천구 금하로 619 (시흥동) 1층,37.454708,126.8999653
239,본 죽&비빔밥 장한평역점,서울특별시 동대문구 천호대로 427-4 (장안동),37.5618445,127.0667795
240,본죽 대치은마점,서울특별시 강남구 도곡로 516 삼성상가,37.4991911,127.0630094
241,본도시락 신용산점,서울특별시 용산구 한강대로 54-1 (한강로3가),37.5255034,126.9647645
242,본죽 강동구청점,서울특별시 강동구 성내로 4,37.5304146,127.1211957
243,본 죽&비빔밥 강남역점,서울특별시 서초구 서초대로78길 36 강남지웰타워 201호,37.4947195,127.028171
244,본죽 먹골역점,"서울특별시 중랑구 공릉로4길 4 (묵동, 묵동해오름아파트)",37.6129687,127.0781552
245,본죽 전농동점,서울특별시 동대문구 사가정로 136,37.5775998,127.0598999
246,본죽 청량리점,서울특별시 동대문구 홍릉로 12 (청량리동),37.5814337,127.0450144
247,본죽 목동로데오점,서울특별시 양천구 목동로 218 (목동) 1층,37.5279175,126.8644065
248,본 죽&비빔밥 강남점,서울특별시 강남구 강남대로94길 21 (역삼동),37.4997359,127.0289802
249,본죽 천왕점,서울특별시 구로구 천왕로 42 쿠앤하우스105호,37.4812207,126.8390083
250,본도시락 시립대점,서울특별시 동대문구 전농로 209,37.582874,127.0537533
251,본 죽&비빔밥 강남성심병원점,"서울특별시 영등포구 시흥대로 681 (대림동, 삼성YJ그랜드빌딩) 신관 2층",37.4922856,126.9087115
252,본죽 성산점,서울특별시 마포구 월드컵북로 230 현대상가,37.5701536,126.9038462
253,본 죽&비빔밥 역삼역점,서울특별시 강남구 봉은사로30길 78 2층,37.5024929,127.0370284
254,본죽 상암DMC점,서울특별시 마포구 월드컵북로 396 누리꿈스퀘어 지하1층 1047호,37.5793419,126.889819
255,본죽 신천점,"서울특별시 송파구 올림픽로 119 (잠실동) 파인애플상가 B동 9,10호",37.5120894,127.0842018
256,본죽 여의도KBS점,"서울특별시 영등포구 의사당대로 38 (여의도동, 여의도더샵아일랜드파크) 102동 122호",37.5257581,126.9187147
257,본 죽&비빔밥 연희점,서울특별시 서대문구 연희맛로 18 (연희동) 1층,37.5667249,126.9298467
258,본 죽&비빔밥 당산점,"서울특별시 영등포구 양평로 16, 1층 (당산동6가,대정프라자)",37.5328795,126.9045068
259,본죽 송파엄마손점,서울특별시 송파구 가락로 113 (석촌동) 금도빌딩 101호,37.5016889,127.1086545
260,본죽 인왕산점,서울특별시 서대문구 통일로 404 (홍제동),37.5857894,126.9477533
261,본도시락 광화문점,서울특별시 종로구 사직로8길 42 광화문시대 108호,37.573774,126.9731379
262,본 죽&비빔밥 선릉점,서울특별시 강남구 선릉로 424,37.5029179,127.0500875
263,본죽 약수역점,서울특별시 중구 다산로 129-1 (신당동),37.5555143,127.0108351
264,본죽 월곡점,"서울특별시 성북구 오패산로 46 (하월곡동, 월곡두산위브아파트) 두산위브 센트로상가 1층 119호",37.6070692,127.0387215
265,본죽 자곡점,"서울특별시 강남구 자곡로 201 (자곡동, 강남더샵라르고) 121호",37.4753785,127.1047297
266,본죽 아현점,서울특별시 마포구 마포대로21길 46 (아현동),37.5550335,126.9555443
267,본죽 종로3가점,서울특별시 종로구 돈화문로 31 1층,37.5713505,126.9917428
268,본죽 신림녹두거리점,서울특별시 관악구 호암로 598 (신림동) 동방빌딩 1층,37.4705725,126.9336659
269,본죽 신곡시장점,서울특별시 양천구 신월로 175 (신월동),37.5188562,126.8425523
270,본도시락 영등포역점,서울특별시 영등포구 영등포로 226 (영등포동3가) 1층,37.5194254,126.9064125
271,본도시락 장안점,서울특별시 동대문구 답십리로 269 화성빌딩 103호,37.5726823,127.0704467
272,본죽 중곡동점,"서울특별시 광진구 면목로 133, 1층(중곡동)",37.5653629,127.0808273
273,본죽 군자역점,서울특별시 광진구 능동로 285 (군자동),37.555525,127.0781869
274,본도시락 신논현역점,"서울특별시 강남구 강남대로110길 15, 지상1층 101호",37.5039949,127.0261871
275,본죽 염창동점,서울특별시 강서구 양천로 731 동아3차아파트,37.549794,126.8776792
276,본죽 보문역점,서울특별시 성북구 보문로 116 (보문동1가),37.5855576,127.0194953
277,본죽 아차산점,서울특별시 광진구 자양로 283 (구의동),37.5511892,127.0915871
278,본죽 양천구청점,"서울특별시 양천구 목동동로 55 (신정동, 밀레니엄프라자)",37.515532,126.8613808
279,본죽 사당점,서울특별시 동작구 동작대로 43 (사당동) 호진빌딩 1층,37.4804853,126.9814439
280,본죽 방이역점,서울특별시 송파구 마천로 28 (방이동),37.5093729,127.1239061
281,본 죽&비빔밥 한성대입구점,"서울특별시 성북구 삼선교로 8 (삼선동1가, 기성빌딩) 1이 19번지",37.5878393,127.0067611
282,본죽 장위뉴타운점,"서울특별시 성북구 월계로40길 7 (장위동, 센트럴타운) 1층",37.6229606,127.048374
283,본죽 강남세브란스사거리점,서울특별시 강남구 언주로 314 (역삼동) 강남프라자 108호,37.4958583,127.0464332
284,본죽 수유사거리점,서울특별시 강북구 도봉로 285 (수유동) 1층,37.6338935,127.0231414
285,본죽 신내점,서울특별시 중랑구 봉화산로 203 동성아파트상가 B동 101호,37.6072649,127.0955306
286,본 죽&비빔밥 문정법조단지점,"서울특별시 송파구 송파대로 167 (문정동, 문정역테라타워) B동 1층 130호",37.4848354,127.1210395
287,본도시락 잠실새내점,"서울특별시 송파구 올림픽로8길 20 (잠실동, 잠실아이파크) 106호",37.5100727,127.0800474
288,본도시락 중계점,서울특별시 노원구 덕릉로 589 (중계동) 101호,37.6509511,127.071793
289,본도시락 강서구청사거리점,서울특별시 강서구 화곡로 347 그랜드아이파크 112호,37.5548228,126.8510458
290,본 죽&비빔밥 양남사거리점,"서울특별시 영등포구 선유로 76 (문래동3가, 동국메뜨리앙) 108호",37.5206365,126.8899118
291,본죽 봉일시장점,서울특별시 관악구 은천로 38-1 (봉천동),37.4860597,126.9395871
292,본죽 시흥점,서울특별시 금천구 금하로 760 (시흥동),37.4499079,126.9140145
293,본죽 신창점[신창시장],서울특별시 도봉구 덕릉로 250 (창동),37.6397333,127.0393744
294,본죽 서초우체국점,서울특별시 서초구 동산로 14 (양재동),37.4694122,127.0412838
295,본죽 삼성차관아파트점,"서울특별시 강남구 봉은사로 474 (삼성동, 쌍용 플래티넘) 108호",37.5123688,127.0519533
296,본죽 신정지구점,"서울특별시 양천구 신정이펜1로 50 (신정동, 신정이펜하우스3단지) 316동 상가114호",37.5128156,126.8303336
297,본죽 상수역점,"서울특별시 마포구 독막로 90 (상수동, 균빌딩)",37.5475135,126.9234085
298,본 죽&비빔밥 까치산역점,서울특별시 강서구 강서로 42 (화곡동) 1층,37.5316581,126.8470455
299,본 죽&비빔밥 광장동점,"서울특별시 광진구 천호대로 808 (광장동, 광장12차 현대홈타운) 1202동 지하 108호",37.5448819,127.1029276
300,본죽 성균관대점,서울특별시 종로구 창경궁로 247 (명륜2가),37.5837099,126.9992512
301,본도시락 목동파리공원점,"서울특별시 양천구 목동서로 57 현대파리지앙, 1층 124호",37.5366423,126.8798539
302,본죽 중곡사거리점,서울특별시 광진구 긴고랑로 115 (중곡동) 1층,37.5593047,127.087911
303,본죽 응암동점,서울특별시 은평구 은평로 119 (응암동) 1층 102호,37.6005473,126.9209119
304,본도시락 건대점,서울특별시 광진구 능동로 149 (화양동),37.5441226,127.0723153
305,본도시락 상암DMC점,"서울특별시 마포구 월드컵북로 375 (상암동, DMC 이안상암1단지) 103호",37.5775718,126.8906892
306,본죽 개화산역점,"서울특별시 강서구 양천로 28 (방화동, 벽산에어트리움) 별관 136호",37.5722167,126.8067625
307,본 죽&비빔밥 마곡역점,"서울특별시 강서구 마곡중앙6로 16 (마곡동, 마곡지엠지타워) 111호",37.5604016,126.8290062
308,본도시락 동작구청점,서울특별시 동작구 장승배기로 143-1 (노량진동),37.5104505,126.9399553
309,본죽 서림점,서울특별시 관악구 신림로 210-1,37.4762426,126.9375331
310,본도시락 강동구청역점,"서울특별시 송파구 강동대로9길 14-1, 1층",37.5275901,127.1165572
311,본죽 천호로데오점,서울특별시 강동구 천호대로 1033 (천호동) 강동빌딩 1층,37.5378953,127.126974
312,본죽 둔촌동점,서울특별시 강동구 양재대로 1319 (성내동) 경일빌딩 1층 105호,37.5241988,127.1344526
313,본도시락 차병원사거리점,"서울특별시 강남구 봉은사로34길 9, 1층 101호",37.5073131,127.0364298
314,본죽 영등포구청점,서울특별시 영등포구 당산로 132 당산동3가 228-23 광명빌딩1층,37.5263031,126.8970125
315,본죽 우이사거리점,서울특별시 강북구 삼양로 423(수유동),37.6412547,127.016616
316,본죽 신도림역포스빌점,서울특별시 구로구 새말로 102 신도림포스빌,37.5057801,126.8914054
317,본도시락 군자점,서울특별시 광진구 능동로 339 (중곡동),37.5599256,127.0807643
318,본죽 세브란스병원점,서울특별시 서대문구 연세로 50-1 세브란스병원 3층,37.5623446,126.9408265
319,본 죽&비빔밥 명동2호점,"서울특별시 중구 명동9길 10, 2층 (명동1가)",37.5643456,126.9850478
320,본죽 상계보람점,서울특별시 노원구 한글비석로 463 (상계동) 101호,37.6642153,127.0664624
321,본도시락 천호점,서울특별시 강동구 천호대로163길 21 (천호동) 1층,37.537573,127.1308627
322,본죽 독산동CTLEX점,서울특별시 금천구 시흥대로 399 (독산동) 시티렉스502호,37.4693592,126.8970019
323,본설렁탕 송파오금점,서울특별시 송파구 마천로 134 (오금동) 1층,37.5047324,127.1343152
324,본죽 등촌3동점,서울특별시 강서구 공항대로41길 44 (등촌동) 아카데미프라자103호,37.5597251,126.8459992
325,본죽 신설동점,서울특별시 동대문구 천호대로 23 (신설동) 베르빌오피스텔상가 107호,37.5746019,127.0263177
326,본죽 정릉점,서울특별시 성북구 보국문로 38 (정릉동),37.607865,127.0103679
327,본 죽&비빔밥 화곡역점,"서울특별시 강서구 화곡로25길 2 (화곡동, KBH빌딩) 202호",37.5413856,126.8384983
328,본죽 장안동삼거리점,서울특별시 동대문구 사가정로 229 (장안동),37.5789469,127.0705533
329,본죽 압구정역점,서울특별시 강남구 압구정로 151 신현대아파트 상가 104호,37.5284222,127.0241229
330,본죽 우면점,"서울특별시 서초구 바우뫼로7길 8 (우면동) 우면종합상가 103,104호",37.4708599,127.0253951
331,본죽 마들역점,서울특별시 노원구 동일로 1547 (상계동) 동남빌딩 101,37.6665688,127.0569555
332,본 죽&비빔밥 목동파리공원점,"서울특별시 양천구 목동서로 77 (목동, 현대월드타워) 현대월드타워 1층 141,142호",37.5359472,126.8780787
333,본죽 화양사거리점,서울특별시 광진구 광나루로 341 (군자동) 1층,37.5485209,127.0679172
334,본도시락 동대문점,서울특별시 중구 을지로 250 아그네스스탠드클럽,37.5661651,127.0057804
335,본도시락 성신여대점,서울특별시 성북구 동소문로26길 1,37.5943869,127.0192468
336,본죽 구일역점,서울특별시 구로구 구일로10길 27 (구로동) SK허브수 오피스텔 A동,37.4956952,126.8719364
337,본도시락 역삼초교점,서울특별시 강남구 역삼로7길 7 (역삼동),37.4944965,127.033027
338,본도시락 송파삼전점,서울특별시 송파구 삼학사로19길 28 캔쇼빌딩,37.5063049,127.0941066
339,본도시락 대학로점,서울특별시 종로구 대학로12길 83 (동숭동) 아트원씨어티 1층,37.5802715,127.0040167
340,본도시락 구로디지털점,서울특별시 구로구 디지털로26길 111 (구로동) Jnk디지털타워 지하1층 G009호,37.4825548,126.8970407
341,본도시락 서울대입구역점,서울특별시 관악구 남부순환로 1855 (봉천동),37.4802632,126.9562555
342,본도시락 사당점,서울특별시 관악구 남부순환로 2044 (남현동),37.4762425,126.9759604
343,본도시락 한양대후문점,서울특별시 성동구 마조로 32,37.5605847,127.0415182
344,본도시락 영등포구청역점,서울특별시 영등포구 당산로31길 24 (당산동3가),37.5269965,126.8941435
345,본도시락 서여의도점,서울특별시 영등포구 국회대로72길 21 (여의도동) 민족통일대통령리빙텔 지하 102호,37.5293355,126.9214915
346,본도시락 가산디지털3단지점,서울특별시 금천구 가산디지털1로 219 (가산동) 벽산디지털밸리 6차 104호,37.4845292,126.8789423
347,본도시락 양재중앙점,서울특별시 서초구 논현로17길 3 (양재동),37.476396,127.0455082
348,본도시락 회기점,서울특별시 동대문구 이문로 36 1층,37.5906794,127.0565883
349,본죽 홍제점,서울특별시 서대문구 통일로 427 (홍제동) 1층,37.5871706,126.9456761
350,본죽 답십리점,서울특별시 동대문구 천호대로 313 (답십리동) 102호,37.5654567,127.0553185
351,본죽 석계역점,서울특별시 노원구 석계로 11-1 (월계동),37.615944,127.0643824
352,본죽 가재울뉴타운점,서울특별시 서대문구 거북골로 120 (남가좌동) 가재울센트레빌아파트 상가2-3호,37.5761735,126.9157281
353,본죽 도봉동점,서울특별시 도봉구 도봉로 887 (도봉동),37.6837466,127.0456737
354,본죽 황학동롯데캐슬점,"서울특별시 중구 청계천로 400 (황학동, 롯데캐슬베네치아) 지상1층 1218호",37.5707646,127.0211246
355,본죽 신길사러가점,서울특별시 영등포구 신길로 166 (신길동),37.5070285,126.9112122
356,본죽 수유점,서울특별시 강북구 한천로 1043 (수유동),37.6402969,127.026053
357,본죽 강일지구점,서울특별시 강동구 아리수로93길 33 (강일동) 베스트프라자 106호,37.5659078,127.1735545
358,본죽 거여동점,"서울특별시 송파구 오금로54길 38 (거여동, 거여팰리스) 1층 102호",37.4926434,127.1438756
359,본죽 난곡미성점,서울특별시 관악구 난곡로 219 (신림동),37.4738955,126.9173622
360,본죽 신수서강대역점,서울특별시 마포구 서강로 106 (신수동) 신촌 클리닉 103호,37.5523496,126.933549
361,본죽 암사롯데팰리스점,서울특별시 강동구 고덕로 140 (암사동) 프라이어팰리스상가 104호,37.5544848,127.1407197
362,본죽 오금점,"서울특별시 송파구 중대로23길 20 (가락동, 우정에쉐르) 우정에쉐르106호",37.502641,127.1258029
363,본죽 영등포역점,서울특별시 영등포구 영신로19길 30-3 (영등포동) 영등포동 618-283,37.5135363,126.904785
364,본죽 이대점,"서울특별시 서대문구 이화여대3길 16 (대현동, 성연빌딩) 1층",37.5580775,126.9448496
365,본 죽&비빔밥 서초법원점,서울특별시 서초구 반포대로30길 53 (서초동) 1층,37.4924581,127.0114199
366,본 죽&비빔밥 서울의료원점,서울특별시 중랑구 신내로16길 17 (신내동) 한솔메디칼타워 101호,37.6142413,127.0972088
367,본 죽&비빔밥 독산역점,서울특별시 금천구 범안로 1130 가산디지털엠파이어 108호,37.4655207,126.8876739
368,본죽 왕십리점,서울특별시 성동구 왕십리로 330 (도선동),37.5629333,127.0332845
369,본죽 한양대점,서울특별시 성동구 마조로 25 (행당동) 102호,37.5600682,127.0409426
370,본죽 뚝섬점,서울특별시 성동구 왕십리로 114 656-297,37.5476785,127.0447512
371,본죽 면목역점,서울특별시 중랑구 겸재로 178 (면목동),37.5881634,127.0872937
372,본죽 망우역점,서울특별시 중랑구 망우로 346 한일써너스빌 101동 113호,37.5972558,127.0912331
373,본죽 사가정역점,서울특별시 중랑구 사가정로 407 (면목동),37.580645,127.0898951
374,본죽 망우우림시장점,서울특별시 중랑구 용마산로 498 (망우동),37.5955092,127.1003494
375,본죽 동대문밀리오레점,"서울특별시 중구 장충단로13길 43 (을지로6가) 내 제1,2층 7호,8호",37.5680983,127.0064646
376,본죽 서울백병원점,서울특별시 중구 마른내로 14 (저동2가),37.5646681,126.9894053
377,본죽 명동점,서울특별시 중구 명동8가길 6 (충무로2가) 2층,37.5615277,126.9854171
378,본죽 대학로본점,서울특별시 종로구 연건동 70-1,37.5787786,127.0017301
379,본죽 불광점,서울특별시 은평구 불광로 40 (불광동),37.6111056,126.930362
380,본죽 신길성애병원옆점,서울특별시 영등포구 영등포로84길 12 (신길동),37.5123201,126.9218419
381,본죽 고척근린공원점,서울특별시 구로구 고척로 141 (고척동) 외 1필지,37.5028298,126.849464
382,본죽 구의시장점,서울특별시 광진구 광나루로 532 (구의동),37.5447054,127.0885125
383,본죽 뚝섬유원지역점,"서울특별시 광진구 능동로 18 (자양동, 이튼타워리버3차) 이튼타워리버3차 124호",37.5327596,127.0681986
384,본죽 자양동점,서울특별시 광진구 뚝섬로 642 (자양동),37.5315213,127.0807696
385,본죽 서울대입구역점,서울특별시 관악구 관악로 237 (봉천동),37.485849,126.955948
386,본죽 신림고시촌점,서울특별시 관악구 대학길 30 (신림동),37.4694604,126.9376831
387,본죽 봉천점,서울특별시 관악구 남부순환로 1741 (봉천동),37.4825626,126.9436246
388,본죽 방화역점,서울특별시 강서구 금낭화로 146 (방화동) 오피앙상가105,37.5781439,126.813296
389,본죽 가양역점,서울특별시 강서구 양천로57길 9-19 (가양동) 동양트레벨스카이 105호,37.5636962,126.8509419
390,본죽 가양사거리점,서울특별시 강서구 강서로 506 (가양동) 가양1동 1458-3,37.57059,126.8419416
391,본죽 우장초교점,서울특별시 강서구 화곡로 280 (화곡동) 강서구 화곡동 982-9,37.5494055,126.8478966
392,본죽 삼양사거리점,서울특별시 강북구 삼양로 167 (미아동),37.6188682,127.0210598
393,본죽 암사역점,서울특별시 강동구 상암로 44 (천호동) 유정빌딩 1층,37.5496483,127.1283192
394,본죽 선릉역점,서울특별시 강남구 선릉로93길 26 (역삼동),37.504838,127.0464526
395,본죽 일원점,서울특별시 강남구 일원로 43 (일원동) 1층,37.4900578,127.081454
396,본죽 개포동역점,서울특별시 강남구 개포로 510 (개포동) 현대빌딩 104호,37.4892964,127.0683608
397,본죽 청담점,서울특별시 강남구 학동로 441 (청담동) 1층,37.5188881,127.0490949
398,본죽 도심공항타워점,서울특별시 강남구 테헤란로 87길36 B1동 9호,37.5103764,127.0584384
399,본죽 수서점,서울특별시 강남구 밤고개로1길 10 (수서동) 수서현대벤쳐빌 1층 116-2호,37.4880245,127.1018445
400,본죽 남가좌점,서울특별시 서대문구 증가로 128 (남가좌동),37.5775701,126.9235334
401,본죽 독립문점,서울특별시 서대문구 통일로 193 (영천동),37.5705665,126.9615922
402,본죽 홍은서대문구청점,서울특별시 서대문구 연희로 267 (홍은동),37.5809563,126.9359282
403,본죽 마포공덕점,서울특별시 마포구 마포대로8길 29 (공덕동) 1층,37.5460678,126.9547731
404,본죽 마포용강점,서울특별시 마포구 큰우물로 53 (염리동) 마포네이버타운 105호,37.5422665,126.9446458
405,본죽 홍대점,"서울특별시 마포구 홍익로 10 (서교동, 서교푸르지오) 서교푸르지오B 106호",37.5538,126.9237
406,본죽 마포도화점,서울특별시 마포구 도화길 43 (도화동) 삼보나눔빌딩 202호,37.5417888,126.9502543
407,본죽 위생병원점,서울특별시 동대문구 망우로21가길 4 (휘경동),37.5906525,127.0624868
408,본죽 대림점,서울특별시 동작구 시흥대로 658 (신대방동) 1층,37.4903665,126.9080747
409,본죽 신대방삼거리역점,서울특별시 동작구 상도로 77 (대방동),37.4999073,126.9292454
410,본죽 신길점[대신시장],서울특별시 영등포구 도신로 227 (신길동) 1층,37.5121385,126.9162603
411,본죽 목동이대병원점,서울특별시 양천구 목동동로 431 (목동) 우방빌딩 104호,37.537167,126.8843651
412,본죽 신월점,서울특별시 양천구 남부순환로 40길 13번지,37.534803,126.8279888
413,본죽 목동아크로텔점,서울특별시 양천구 목동서로 277 (신정동) 대림아크로텔 106호,37.5224517,126.8694435
414,본죽 삼전동점,서울특별시 송파구 백제고분로 202 (삼전동) 두레빌딩 1층,37.503824,127.0890209
415,본죽 송파석촌점,서울특별시 송파구 송파대로 451 (석촌동),37.5065499,127.1055285
416,본죽 마천동점,"서울특별시 송파구 마천로 264 (거여동, 흥일빌딩)",37.4980924,127.1461657
417,본죽 송파가락점,서울특별시 송파구 송파대로30길 16 송파가락두산위브센티움 1층,37.4945922,127.1191447
418,본죽 방이시장점,서울특별시 송파구 백제고분로48길 12 (방이동) 1층,37.5113301,127.1145045
419,본죽 문정로데오점,서울특별시 송파구 동남로6길 3 (문정동) 1층,37.4899058,127.1242024
420,본죽 미아사거리점,서울특별시 성북구 숭인로 70-1 (길음동) 485-9,37.612248,127.0294369
421,본죽 종암점,서울특별시 성북구 종암로 78 (종암동) 78호,37.5972718,127.0355026
422,본죽 방배역점,서울특별시 서초구 방배로 104 (방배동),37.4835795,126.9965782
423,본죽 내방역점,서울특별시 서초구 방배로 195 (방배동) 111호,37.4907001,126.9915038
424,본죽 반포KCC[제일약품]점,서울특별시 서초구 주흥길 3 (반포동) 시범빌딩 101호,37.5037609,127.0208126
425,본죽 방배까페골목점,서울특별시 서초구 방배중앙로 196 (방배동) 1동 308호,37.4963095,126.9857355
426,본죽 남부터미널점,서울특별시 서초구 효령로 303 (서초동) 부속10동상가 1층 101호,37.485488,127.0173647
427,본죽 교대역지파이브점,서울특별시 서초구 서초중앙로24길 27 (서초동) G-5센트릴프라자 1층 103호,37.4954178,127.0164171
428,본죽 중계은행사거리점,서울특별시 노원구 한글비석로 245 (중계동) 두타빌A동 110,37.6495368,127.0763798
429,본죽 광운대역점,서울특별시 노원구 광운로 54 (월계동),37.6221814,127.0596554
430,본죽 중계브라운스톤점,"서울특별시 노원구 동일로203가길 29 (중계동, 브라운스톤중계) 브라운스톤 115호",37.6399301,127.0642714
431,본죽 상계역점,"서울특별시 노원구 덕릉로 699 (중계동, 우암에이스타워) 우암에이스타워 106호",37.6600972,127.0752382
432,본죽 압구정로데오점,서울특별시 강남구 압구정로 330 (신사동) 대봉상가 1층 105호,37.5282779,127.0376635
433,본죽 풍납동점,서울특별시 송파구 토성로 25 (풍납동),37.5306677,127.1132879
434,본죽 반포점,서울특별시 서초구 고무래로 18-4 (반포동) 송암한의원 1층,37.502995,127.0101407
435,본죽 도봉월드점,서울특별시 도봉구 마들로 650 (방학동) 216호,37.6680424,127.047079
436,본도시락 회현역점,서울특별시 중구 소공로 35 남산롯데캐슬아이리스 103호,37.5581967,126.9821196
437,본죽 역촌점,서울특별시 은평구 갈현로 85 본죽 역촌점,37.6055948,126.9103419
438,본도시락 방이역점,서울특별시 송파구 위례성대로18길 28-7 (방이동),37.5099198,127.1246157
439,본 죽&비빔밥 해운대백병원점,"부산광역시 해운대구 좌동순환로 252 (좌동, 대원아파트) 2층 203호",35.1727462,129.180702
440,본 죽&비빔밥 부산명지CGV점,"부산광역시 강서구 명지국제8로10번길 46 (명지동, 플러스존1) 119호",35.094494,128.9023961
441,본 죽&비빔밥 구서쌍용예가점,부산광역시 금정구 구서로 26 (구서동) 본죽&비빔밥 구서쌍용예가점,35.2469083,129.0882771
442,본도시락 부산장림점,부산광역시 사하구 장림번영로 6 (장림동) 1층,35.0819917,128.9664715
443,본 죽&비빔밥 부산명륜동점,부산광역시 동래구 명륜로 196 (명륜동) 1층,35.2112234,129.0829016
444,본 죽&비빔밥 부산대연점,"부산광역시 남구 수영로 248 (대연동, 메트로타워) 102호",35.1349528,129.0937073
445,본 죽&비빔밥 부산대점,부산광역시 금정구 금강로 265 (장전동) 본 죽&비빔밥 부산대점,35.2317668,129.0850231
446,본설렁탕 부산하단점,부산광역시 사하구 승학로 2 (당리동) 청기와맨션 1층 107~108호,35.1062677,128.9691276
447,본도시락 부산국제도시점,부산광역시 강서구 명지국제5로148번길 3 (명지동) 102호,35.1071368,128.9217831
448,본 죽&비빔밥 부산개금점,부산광역시 부산진구 엄광로 34 (개금동) 본죽&비빔밥 부산개금점,35.1480934,129.0198168
449,본설렁탕 부산범일점,"부산광역시 동구 조방로 14 (범일동, 동일타워) 204호",35.1387523,129.0634901
450,본 죽&비빔밥 부산부곡시장점,부산광역시 금정구 부곡로 115 (부곡동) 본죽&비빔밥 부산부곡시장점,35.2261696,129.0916828
451,본 죽&비빔밥 센텀시티역점,"부산광역시 해운대구 센텀동로 26 (우동, 한화꿈에그린센텀) A동 101B-1호",35.1720426,129.132543
452,본 죽&비빔밥 부산연산점,"부산광역시 연제구 반송로 33 (연산동, 샤르망라이프) 102호",35.1883317,129.0840961
453,본 죽&비빔밥 부산범일점,"부산광역시 동구 조방로 14 (범일동, 동일타워) 1층 제 판매2-104호",35.1387523,129.0634901
454,본도시락 부산연산점,"부산광역시 연제구 중앙대로 1125 (연산동, C T 타워) 105호",35.1880405,129.0806504
455,본 죽&비빔밥 부산수영점,부산 수영구 광안동 98-1 삼정코아더시티오피스텔 1층,35.1649527,129.1151555
456,본도시락 부산동래점,부산 동래구 충렬대로 184 (명륜동) 1층,35.2034566,129.0798127
457,본 죽&비빔밥 부산일광신도시점,"부산 기장군 일광면 해빛2로 24 (삼성리, 일광 신도시 비스타 동원1차) 301동 상가 117호",35.2679276,129.2272789
458,본도시락 부산안락점,"부산광역시 동래구 충렬대로428번길 30 (안락동, 보해이브) 101호",35.1951848,129.104215
459,본도시락 부산범일점,"부산광역시 동구 자성로133번길 6 (범일동, 진흥 마제스타워 범일) 104동 2101호",35.1374175,129.0651896
460,본 죽&비빔밥 해운대마린시티점,"부산광역시 해운대구 마린시티2로 47 (우동, 트럼프월드마린아파트) 제C동 105호",35.155375,129.1434203
461,본 죽&비빔밥 부산초량점,부산 동구 초량동 42-18 1층,35.1223443,129.0425717
462,본 죽&비빔밥 부산안락점,부산광역시 동래구 충렬대로 354 (안락동),35.1977016,129.0972331
463,본 죽&비빔밥 부산남구청점,부산광역시 남구 못골로 42 (대연동) 1층,35.1356606,129.0870516
464,본 죽&비빔밥 부산화명동점,"부산광역시 북구 화명신도시로 132 (화명동, 위너스타워) 101호",35.2359112,129.0113182
465,본죽 부산신호점,부산광역시 강서구 신호산단2로 21 (신호동) 허브원 109호,35.08708,128.877794
466,본죽 부산기장점,부산광역시 기장군 기장읍 읍내로 103 (이랜드쥬니어) 1층,35.2452429,129.2156669
467,본설렁탕 부산화명점,부산광역시 북구 금곡대로303번길 36 (화명동) 104호,35.2358274,129.0119891
468,본도시락 부산사상점,"부산광역시 사상구 운산로 42 (괘법동, 한신1차아파트)",35.1681015,128.9810417
469,본도시락 부산양정점,부산광역시 부산진구 연수로 4 (양정동),35.1729195,129.0718507
470,본죽 부산정관모전점,부산광역시 기장군 정관읍 정관로 385,35.3349886,129.165526
471,본 죽&비빔밥 부산토곡점,"부산광역시 연제구 과정로 169 (연산동, 금광타워) 102호",35.1865373,129.1068696
472,본 죽&비빔밥 부산법조타운점,부산광역시 연제구 법원남로10번길 7 (거제동),35.1909333,129.0751064
473,본 죽&비빔밥 부산재송점,"부산광역시 해운대구 재반로 123 (재송동, 상록캐스빌) 102호",35.1894773,129.1264449
474,본죽 부산신평가락타운점,부산광역시 사하구 하신번영로 209 (하단동),35.0997913,128.9581842
475,본죽 부산진역점,부산광역시 동구 좌천남로 25 (좌천동),35.1309381,129.0492913
476,본죽 부산남천동점,"부산광역시 수영구 수영로384번길 39,1층(남천동) 1층",35.1395342,129.1082085
477,본 죽&비빔밥 동아대병원점,부산광역시 서구 대신공원로 14 (동대신동3가) 1층,35.1192277,129.0165008
478,본도시락 부산부전점,부산광역시 부산진구 새싹로 37 (부전동),35.1608547,129.0563368
479,본 죽&비빔밥 부산엄궁점,부산광역시 사상구 엄궁북로 24 (엄궁동) 1층 (구-올드팝),35.1283533,128.9727954
480,본도시락 부산중앙역점,부산광역시 중구 해관로 71-2 (중앙동4가) 1층,35.1053246,129.0352835
481,본죽 부산금련산점,부산광역시 수영구 남천동로108번길 31 (남천동),35.1466853,129.1130352
482,본죽 해운대중동점,부산광역시 해운대구 중동1로 17 (중동) 1층,35.1635378,129.1618527
483,본죽 부산주례점,부산광역시 사상구 가야대로 288 창조센츄리아파트 상가1층 103호,35.1500801,129.004055
484,본 죽&비빔밥 부산오륙도SK점,"부산광역시 남구 오륙도로 85 (용호동, 오륙도에스케이뷰아파트) 오륙도SK뷰 단지내상가 201동 105호",35.1030157,129.1193262
485,본 죽&비빔밥 부산사하구청점,부산광역시 사하구 낙동대로 398 (당리동),35.1034691,128.9747053
486,본 죽&비빔밥 부산동래점,부산광역시 동래구 충렬대로 211 (명륜동),35.2025831,129.0825285
487,본도시락 부산부경대점,"부산광역시 수영구 황령대로473번길 15 (남천동, 남천엑슬루타워) 108호",35.1401475,129.1063592
488,본죽 부산명지오션시티점,부산광역시 강서구 명지오션시티4로 75 (명지동) 서린프라자 102호,35.0822731,128.9039564
489,본도시락 부산대연점,"부산광역시 남구 수영로 237 (대연동, 대연메디타워) 101호",35.135417,129.0926269
490,본죽 부산대학병원점,부산광역시 서구 구덕로 204 (부민동1가) 1층,35.1027734,129.0201206
491,본죽 부산서면점,부산광역시 부산진구 동천로 74 (전포동) 2층,35.1552396,129.0625278
492,본죽 부산고신대병원점,부산광역시 서구 감천로 271 정림비치타운상가 106호,35.0813152,129.0171947
493,본 죽&비빔밥 부산부경대경성대점,부산광역시 남구 용소로 46-1 (대연동),35.1331899,129.1008915
494,본죽 부산용호점,부산광역시 남구 분포로 113 LG매트로시티 1005동 110호,35.129786,129.109571
495,본도시락 부산해운대장산역점,"부산광역시 해운대구 세실로 30 (좌동, 경동지플러스) 1층 104호",35.1679606,129.1797386
496,본 죽&비빔밥 부산명지국제중앙점,부산광역시 강서구 명지국제8로 240 (명지동) 국제메디칼빌딩103호,35.0978297,128.9188877
497,본도시락 부산정관점,부산광역시 기장군 정관읍 정관5로 12 (동원로얄듀크2차아파트) 상가228동 137호,35.319023,129.1750523
498,본죽 부산감천동점,부산광역시 사하구 감천로 47 (감천동),35.090953,128.9978176
499,본도시락 부산엄궁점,"부산광역시 사상구 엄궁북로 40 (엄궁동, 엄궁롯데캐슬리버) 1상가 510동 101호",35.1278818,128.974493
500,본죽 부산시청점,"부산광역시 연제구 중앙대로 1032, 1층(연산동)",35.180615,129.0776064
501,본 죽&비빔밥 부산괴정점,부산광역시 사하구 낙동대로 231 (괴정동),35.0994108,128.9917276
502,본죽 부산초읍점,부산광역시 부산진구 새싹로 183 세동한신아파트 정문,35.1724512,129.0489278
503,본도시락 부산수영점,"부산광역시 수영구 수영로 649, 1층(광안동)",35.163759,129.1140682
504,본도시락 부산하단점,"부산광역시 사하구 승학로2번길 1, 1층10호(당리동, 하단시장)",35.1062868,128.969483
505,본도시락 부산개금점,"부산광역시 부산진구 복지로 70 (개금동, 개금현대I아파트) 221동 101호",35.1478547,129.0186104
506,본도시락 부산부민점,부산광역시 서구 구덕로214번길 9,35.1038356,129.020558
507,본죽 부산남포점,부산광역시 중구 비프광장로 39 (남포동5가),35.0983547,129.0293077
508,본죽 부산구남점,부산광역시 북구 백양대로 1028 (구포동) 거림맥스랜드빌딩 104호,35.1972333,128.9955318
509,본도시락 부산법조타운점,"부산광역시 연제구 법원로32번길 10 (거제동, 협성프라자빌딩) 1층 104호",35.1913172,129.0745478
510,본도시락 부산화명점,"부산광역시 북구 화명대로 68 (화명동, 이편한세상화명힐스) 208호",35.2336766,129.0160184
511,본죽 해운대센텀점,"부산광역시 해운대구 센텀동로 123, 상가동 5호(재송동,더샵센텀스타)",35.1779777,129.1241141
512,본도시락 부산영도점,부산광역시 영도구 남항로9번길 34 (남항동1가),35.0911908,129.0385469
513,본도시락 부산덕천점,부산광역시 북구 백양대로 1191 (구포동) 2층,35.208704,129.0050643
514,본죽 부산만덕점,부산광역시 북구 덕천로 243 (만덕동),35.2108449,129.0308395
515,본 죽&비빔밥 부산하단점,부산광역시 사하구 낙동대로 460 (당리동),35.1060315,128.9689328
516,본죽 부산명장역점,부산광역시 동래구 명장로20번길 32 (명장동) 1층,35.2045141,129.1015585
517,본죽 부산서동점,부산광역시 금정구 서동로 163 (서동) 1층,35.2147771,129.1044244
518,본죽 부산학장점,부산광역시 사상구 학감대로123번길 89 삼성2차아파트상가동 101호,35.1405872,128.9833803
519,본죽 부산카이저수정역점,"부산광역시 북구 금곡대로 166 (화명동, 롯데캐슬카이저) 본상가동 B104호",35.2220606,129.0106434
520,본도시락 부산역점,부산광역시 동구 중앙대로 196번길 6-5 부산빌딩1층,35.1139602,129.0400422
521,본죽 부산광안역점,부산광역시 수영구 광안동 506-31,35.1565435,129.1131069
522,본죽 해운대좌2동점,"부산광역시 해운대구 좌동순환로 308 (좌동, 송강빌딩)",35.1686788,129.1825625
523,본도시락 부산센텀시티점,부산광역시 해운대구 APEC로 17 (우동) 센텀리더스마크 1층 109호,35.1659261,129.1324308
524,본도시락 부산대점,부산광역시 금정구 금정로 86 (장전동),35.2322038,129.0869568
525,본죽 부산배산역점,부산광역시 연제구 연수로 233 1층,35.1736329,129.096348
526,본죽 부산당감점,부산광역시 부산진구 동평로 107 (부암동),35.1660402,129.0411584
527,본죽 부산가야점,"부산광역시 부산진구 가야대로 613 (가야동, 유림아파트) 유림상가101호",35.1554745,129.0391358
528,본죽 부산반여점,부산광역시 해운대구 선수촌로 101 (반여동) 성훈빌딩 1층,35.2027792,129.1192416
529,본죽 부산문현점,부산광역시 남구 전포대로20번길 26 한화꿈에그린 제피101동 제지하3층,35.1378174,129.0690301
530,본죽 부산모라점,부산광역시 사상구 백양대로 883 (모라동) 동원@상가 10동 108호,35.1850789,128.9908316
531,본죽 부산동삼점,부산광역시 영도구 웃서발로 79 (동삼동),35.0790611,129.0708691
532,본 죽&비빔밥 정관신도시점,"부산광역시 기장군 정관읍 정관로 560 (정관읍, 마치빌딩) 마치빌딩 1층 103호",35.321356,129.1750986
533,본 죽&비빔밥 해운대수비오거리점,부산광역시 해운대구 해운대로 403 (우동) 1층 104호,35.1680974,129.1403405
534,본죽 부산역점,부산광역시 동구 중앙대로 207-1 (초량동) 2층,35.1159101,129.0396694
535,본죽 부산부곡점,부산광역시 금정구 중앙대로1719번길 9 (부곡동),35.2377518,129.0916091
536,본죽 부산구서점,부산광역시 금정구 중앙대로1945번길 12 (구서동) 번지,35.2580907,129.090621
537,본죽 부산남산점,부산광역시 금정구 금단로 202 (남산동),35.2668734,129.0933358
538,본죽 부산영도점,부산광역시 영도구 태종로 127-1,35.0914443,129.0437316
539,본죽 부산다대점,"부산광역시 사하구 다대로 483 (다대동, 현대빌딩) 101호",35.0614077,128.97633
540,본죽 부산장림동점,부산광역시 사하구 다대로 273 (장림동),35.0779393,128.9775655
541,본죽 부산사상점,부산광역시 사상구 사상로 218 (괘법동) 호림빌딩 1층,35.1645505,128.9837365
542,본죽 부산덕천점,부산광역시 북구 덕천2길 42-1 (덕천동),35.2093256,129.0076691
543,본죽 부산숙등역(부민병원)점,부산광역시 북구 만덕대로 68 (덕천동),35.2115482,129.0123204
544,본죽 부산양정점,부산광역시 부산진구 동평로 367 (양정동),35.1750148,129.0655009
545,본죽 부산부전점,부산광역시 부산진구 서면문화로 9 (부전동) 2층,35.15846,129.0574606
546,본죽 부산범내골역점,부산광역시 부산진구 범일로 185 (범천동),35.1466908,129.0589704
547,본죽 부산서면시장점,부산광역시 부산진구 중앙대로 701-4 (부전동) 1층,35.1554349,129.0588048
548,본죽 부산광혜병원점,부산광역시 동래구 충렬대로108번길 6 (온천동) 1층,35.2064228,129.0723513
549,본죽 부산사직점,부산광역시 동래구 석사로 4 (사직동),35.1977107,129.0607575
550,본죽 부산온천장점,부산광역시 동래구 중앙대로 1523 (온천동) SK허브스카이 1층 B1-08호,35.2208431,129.0855308
551,본 죽&비빔밥 대구침산네거리점,대구광역시 북구 침산로 154 (침산동),35.8899274,128.5910235
552,본 죽&비빔밥 대구구병원점,대구광역시 달서구 달구벌대로 1600 (감삼동),35.8515311,128.5417666
553,본 죽&비빔밥 대구목련시장점,대구광역시 수성구 용학로 198 (지산동),35.8217214,128.6301437
554,본 죽&비빔밥 대구수성교점,"대구광역시 수성구 달구벌대로 2315 (수성동4가, 수성 롯데캐슬) 114호",35.8601059,128.6153299
555,본도시락 대구칠곡3지구점,대구광역시 북구 동암로 128-12 (구암동) 1층 101호,35.9429509,128.5644862
556,본도시락 대구율하점,대구광역시 동구 율하동 1159 1층,35.8663584,128.6919927
557,본설렁탕 대구칠곡점,대구광역시 북구 동천로23길 30-23 (동천동) 108호,35.9439684,128.5570746
558,본설렁탕 수성네거리점,대구광역시 수성구 들안로64길 15 (수성동3가) 106호,35.8589297,128.6185733
559,본 죽&비빔밥 대구범물동아백화점점,대구광역시 수성구 용학로 293 (지산동) 1층,35.8218652,128.6402111
560,본 죽&비빔밥 대구신매시장점,"대구광역시 수성구 신매로 91 (신매동, 시지삼주한라협화타운) 112동 106호",35.8379705,128.7076116
561,본도시락 대구현풍점,"대구광역시 달성군 유가읍 테크노중앙대로 254 (봉리, 하이젠스타) 107호",35.6931072,128.4582125
562,본 죽&비빔밥 대구서부정류장점,대구광역시 달서구 월배로 457 (송현동) 1층,35.8342081,128.5547926
563,본도시락 대구만촌점,"대구광역시 수성구 달구벌대로 2690 (만촌동, 만촌화성파크드림2차) 상가105호",35.8538342,128.6551929
564,본도시락 대구다사점,대구 달성군 다사읍 매곡리 1521-12 1층,35.8639329,128.4645169
565,본도시락 대구서부정류장점,대구광역시 달서구 학산로 245 (송현동) 1층,35.8339227,128.5533573
566,본 죽&비빔밥 대구연경점,대구광역시 북구 동화천로 237 (연경동) 1층,35.9426066,128.6169567
567,본 죽&비빔밥 대구서구청점,대구광역시 서구 국채보상로 248 (평리동) 1층,35.8708327,128.5581499
568,본 죽&비빔밥 대구칠호광장점,대구광역시 서구 달구벌대로 1727-1 (내당동) 2층,35.8570273,128.5542608
569,본 죽&비빔밥 대구율하점,"대구 동구 안심로16길 47 (율하동, 율하동 타임스퀘어) 114호",35.8632576,128.6937409
570,본도시락 대구시지점,대구광역시 수성구 신매로 32 (신매동) 1층,35.832299,128.7075231
571,본도시락 대구범물지산점,대구광역시 수성구 지범로39길 11-10 (범물동) 1층,35.8209239,128.6414962
572,본도시락 동대구역점,대구광역시 동구 효신로 69 (신천동),35.8774453,128.6317098
573,본 죽&비빔밥 대구동성로중앙점,대구광역시 중구 중앙대로 388 (동성로3가),35.8676526,128.5937592
574,본 죽&비빔밥 대구사월점,"대구광역시 수성구 달구벌대로 3304 (신매동, 사월화성파크드림) 상가110동 2호",35.8355988,128.7165883
575,본 죽&비빔밥 대구매천점,대구광역시 북구 학정로 50 (태전동),35.9132342,128.548063
576,본 죽&비빔밥 대구알파시티점,"대구광역시 수성구 알파시티2로 27 (시지동, 수성메트로)",35.8400563,128.6919877
577,본 죽&비빔밥 대구구지점,대구광역시 달성군 구지면 과학마을로 48,35.6555852,128.4185551
578,본죽 대구세천점,대구광역시 달성군 다사읍 세천로 160 (북죽곡엠코타운더솔레뉴) 301동 101호,35.8739142,128.4788319
579,본도시락 대구이시아폴리스점,대구광역시 동구 팔공로51길 3 (봉무동) 114호,35.9227726,128.6408116
580,본 죽&비빔밥 대구대명영대병원점,대구광역시 남구 중앙대로 141 (대명동),35.8458991,128.5901614
581,본도시락 대구용산점,대구광역시 달서구 한들로 15. 1층,35.8481073,128.528857
582,본죽 대구황금동점,대구광역시 수성구 청수로 202 (지산동),35.839007,128.6299513
583,본죽 대구유천점,대구광역시 달서구 조암남로 170 (유천동) 신성메디타워 1층 108호,35.815659,128.5165028
584,본죽 대구월배점,대구광역시 달서구 상원로 142 상인자이아파트 상가동105호,35.8213211,128.5304093
585,본죽 대구대봉교점,대구광역시 남구 명덕로 322,35.8548441,128.6051377
586,본도시락 대구성서점,대구광역시 달서구 계대동문로 123 성서우방타운 118동 113호,35.8567832,128.5059488
587,본 죽&비빔밥 대구가톨릭병원점,대구광역시 남구 두류공원로 91 1층,35.8446192,128.5688143
588,본 죽&비빔밥 대구효성타운점,대구광역시 남구 효성로 58 (봉덕동) 1층,35.8383842,128.598961
589,본죽 대구칠곡동아백화점점,대구광역시 북구 구암로 103,35.9324554,128.5520339
590,본죽 대구화원점,대구광역시 달성군 화원읍 사문진로 447,35.8037327,128.4974241
591,본죽 대구현풍점,대구광역시 달성군 현풍면 현풍중앙로 46-1,35.6936296,128.4459853
592,본 죽&비빔밥 대구테크노폴리스점,대구광역시 달성군 현풍읍 테크노중앙대로 243 (타임스퀘어) 1층 107호(타임스퀘어),35.6921368,128.4573959
593,본죽 대구송라시장점,대구광역시 동구 동부로 19,35.87425,128.614802
594,본도시락 대구두류점,대구광역시 달서구 달구벌대로 1726-12 1층,35.8559568,128.5544513
595,본 죽&비빔밥 칠곡경북대병원점,대구광역시 북구 호국로 807-35 1층,35.9562411,128.5661916
596,본도시락 대구범어점,대구광역시 수성구 상록로2길 72 (범어동),35.8627532,128.6254418
597,본 죽&비빔밥 대구경북대병원점,대구광역시 중구 동덕로 129 (삼덕동2가),35.8661724,128.6032131
598,본 죽&비빔밥 대구중구남산점,"대구광역시 중구 달구벌대로 1950 (남산동, 남산그린타운) 1층",35.8626341,128.5771179
599,본 죽&비빔밥 대구상인롯데점,"대구광역시 달서구 상인서로 103-6 (상인동, 리젠트프라자)",35.8183944,128.5395789
600,본도시락 대구신서혁신점,대구광역시 동구 첨복로 27 (신서동) 104호,35.8784547,128.7328016
601,본죽 대구반야월점,대구광역시 동구 금강로 16 (동호동) 1층,35.8663459,128.7243458
602,본도시락 대구동성로점,대구광역시 중구 중앙대로 417.1층,35.8703464,128.5936958
603,본 죽&비빔밥 대구MBC네거리점,대구광역시 수성구 동대구로 389 (범어동),35.8652571,128.6262868
604,본죽 대구남문시장점,"대구광역시 중구 명륜로 72(남산동,1층)",35.86113,128.5923053
605,본 죽&비빔밥 대구금호점,대구광역시 북구 내곡로 36 (사수동),35.8988177,128.5098717
606,본 죽&비빔밥 대구대곡역점,대구광역시 달성군 화원읍 비슬로 2727 1층,35.8099583,128.5130627
607,본 죽&비빔밥 대구동산병원점,대구광역시 중구 국채보상로 468 (대신동) 1층,35.8703242,128.5819117
608,본 죽&비빔밥 대구달서구청점,"대구광역시 달서구 학산로 7길 5 월성동, 월성동서타운)",35.8285714,128.5317256
609,본도시락 대구침산점,대구광역시 북구 침산로 153 명성푸르지오아파트 104동 1층 D2-3호,35.8893078,128.5900885
610,본 죽&비빔밥 대구만촌이마트점,대구광역시 수성구 동원로 135 네트로팔레스상가 821동 107호,35.8700776,128.6347589
611,본 죽&비빔밥 대구북구청점,대구광역시 북구 원대로 91 (노원동1가),35.8856777,128.5817435
612,본 죽&비빔밥 대구파티마병원점,대구광역시 동구 아양로 77 (신암동) 1층,35.8830961,128.6222036
613,본도시락 대구영남대병원점,대구광역시 남구 대명로 282-1,35.8434735,128.5871275
614,본 죽&비빔밥 대구성서점,대구광역시 달서구 이곡동로 23 (이곡동),35.854267,128.5100132
615,본죽 대구팔달시장점,대구광역시 서구 팔달로 178 (원대동3가),35.888403,128.5695326
616,본 죽&비빔밥 대구칠곡점,대구광역시 북구 학정로 429 로데오프라자 101호,35.9430706,128.5632386
617,본도시락 대구엑스코점,대구광역시 북구 유통단지로8길 76 (산격동) 2층,35.9055305,128.612897
618,본죽 대명안지랑점,대구광역시 남구 대명로 163 (대명동),35.8393411,128.5756026
619,본죽 대구만촌역점,대구광역시 수성구 달구벌대로 2602 (만촌동),35.8581909,128.6470131
620,본죽 대구감삼드림시티점,대구광역시 달서구 장기로 240 (장기동),35.8437661,128.5342419
621,본도시락 대구수성점,"대구광역시 수성구 달구벌대로 2315 (수성동4가, 수성 롯데캐슬) 상가 108호",35.8601059,128.6153299
622,본죽 대구칠곡관음점,대구광역시 북구 칠곡중앙대로 483 103동 1403호,35.9389235,128.549309
623,본죽 대구두산[트럼프월드]점,대구광역시 수성구 상화로 142 (두산동),35.8352819,128.6224918
624,본 죽&비빔밥 대구용산장기점,대구광역시 달서구 용산로 141 그랜드M 타워,35.8501307,128.5301261
625,본 죽&비빔밥 대구시지점,대구광역시 수성구 달구벌대로 3188 아레나 스포츠센타 1층,35.8403253,128.7052207
626,본도시락 대구월배점,대구광역시 달서구 상원로 117 (상인동),35.8189715,128.5310323
627,본 죽&비빔밥 대구신서혁신지구점,대구광역시 동구 첨단로8길 1 미소빌딩 104호,35.8791652,128.7304934
628,본죽 대구수성뉴타운쌍용예가점,"대구광역시 수성구 명덕로 477 (범어동, 범어쌍용예가아파트) 쌍용예가 상가 118호",35.8546706,128.6219415
629,본 죽&비빔밥 대구성당뉴타운점,대구광역시 달서구 당산로 39 성당 래미안 e-편한세상,35.8409506,128.5444522
630,본죽 대구이시아폴리스점,대구광역시 동구 팔공로51길 11 (봉무동) 107호,35.9229628,128.6398261
631,본도시락 대구경북대학교점,대구광역시 북구 대학로17길 5 (산격동),35.8928313,128.6087384
632,본죽 대구방촌시장점,대구광역시 동구 동촌로 214-1 (방촌동),35.8820194,128.6636607
633,본도시락 대구경대병원역점,"대구광역시 중구 동덕로 109 (삼덕동2가, 아진맨션아파트) 1층",35.8645281,128.6025929
634,본죽 대구침산점,대구광역시 북구 호암로 30 (칠성동2가),35.882365,128.5938578
635,본죽 대구진천역점,"대구광역시 달서구 월배로 71 (진천동, 진천트윈팰리스) 진천트윈팰리스 1층 106호",35.8143061,128.5221484
636,본죽 대구서재점,대구광역시 달성군 다사읍 서재로 121,35.8743961,128.4970285
637,본 죽&비빔밥 대구동성로점,대구광역시 중구 동성로 57 (동성로2가),35.8719026,128.5955654
638,본 죽&비빔밥 내당삼익뉴타운점,대구광역시 서구 평리로 254 (내당동) 삼능빌딩 B동,35.8625819,128.5515025
639,본죽 대구중동교점,대구광역시 수성구 청수로 11 (중동),35.8412726,128.6093232
640,본죽 대구수성구청점,대구광역시 수성구 달구벌대로 2474 (범어동) 1층,35.8585223,128.6333199
641,본죽 대구복현동점,대구광역시 북구 동북로 280 (복현동),35.8929718,128.6204154
642,본죽 대구산격점,"대구광역시 북구 동북로 163 (산격동, 산격대우아파트) 101동 104호",35.9007956,128.6114256
643,본죽 대구동서변점,"대구 북구 호국로 219 (서변동, 대성골든프라자1차) 132호",35.9213059,128.5988481
644,본죽 대구방촌점,"대구광역시 동구 화랑로80길 8 (방촌동, 우방강촌마을아파트) 우방강촌마을 147-103",35.8764407,128.6657885
645,본죽 대구다사죽곡점,대구광역시 달성군 다사읍 달구벌대로 889 1층 102호,35.8573757,128.4662761
646,본죽 대구성서강창역점[동산병원],"대구광역시 달서구 호산로 125 (파호동, 삼성명가타운상가) 1층 122호",35.8514181,128.4754015
647,본죽 대구대곡점,대구광역시 달서구 한실로 95 (도원동) 1층,35.8069855,128.5371196
648,본죽 동대구시장점,대구광역시 동구 신암로 72 (신암동),35.87797,128.6085565
649,본죽 대구옥포점,대구광역시 달성군 옥포면 돌미상업로 9. 1층 109호,35.7818061,128.4419045
650,본 죽&비빔밥 인천마전동점,인천광역시 서구 마전동 1140-5 102호,37.6082113,126.6683746
651,본 죽&비빔밥 인천인하대역점,"인천광역시 미추홀구 독배로 311 (용현동, 비젼프라자) 1층 제102호",37.4481463,126.6491201
652,본 죽&비빔밥 인천청라호수공원점,인천광역시 서구 청라한내로 96 (청라동) 하엘에스페이스 제 1층 102호,37.533852,126.627887
653,본도시락 인천계양구청점,"인천광역시 계양구 도두리로 33 (계산동, 상산빌딩) 104호",37.5341049,126.738124
654,본 죽&비빔밥 인천갈산점,"인천광역시 부평구 주부토로 182 (갈산동, 승전빌딩) 104호",37.5113078,126.7263215
655,본 죽&비빔밥 인천도화점,"인천광역시 미추홀구 숙골로87번길 2 (도화동, 센타프라자) 센터프라자 101호",37.4701339,126.66299
656,본 죽&비빔밥 인천소래역점,인천광역시 남동구 앵고개로 928 (논현동) 115호,37.4017932,126.733912
657,본 죽&비빔밥 인천작전동점,인천광역시 계양구 효서로 233 (작전동),37.5280966,126.7220574
658,본 죽&비빔밥 송도랜드마크시티더샵점,"인천광역시 연수구 랜드마크로 68 (송도동, 랜드마크시티센트럴더샵) 1층 79호",37.415667,126.6199381
659,본도시락 영종하늘도시점,인천광역시 중구 자연대로 37 (중산동) 스카이가든 115호,37.4881823,126.5598887
660,본 죽&비빔밥 인천보훈병원점,인천광역시 미추홀구 인주대로 148 (용현동) 115호,37.455966,126.6534051
661,본 죽&비빔밥 인천부평부개동점,"인천광역시 부평구 길주남로 158 (부개동, 부개프라자) 부개프라자 109호",37.5035857,126.7394035
662,본도시락 송도글로벌캠퍼스점,"인천광역시 연수구 송도문화로28번길 28 (송도동, 송도글로벌캠퍼스푸르지오) 201동 115호",37.3766923,126.6536904
663,본 죽&비빔밥 인천한화에코점,인천광역시 남동구 에코중앙로156번길 5-21 (논현동) 101호,37.3919967,126.7267175
664,본 죽&비빔밥 인천계양점,"인천광역시 계양구 계산새로 71 (계산동, 하이베라스) D동 107호",37.5386558,126.7360621
665,본 죽&비빔밥 인천제물포역점,인천광역시 미추홀구 수봉로27번길 4 (숭의동) 101호,37.463572,126.6565767
666,본 죽&비빔밥 인천경인교대역점,인천광역시 계양구 계양대로 157 (계산동) 1층,37.538008,126.7221669
667,본도시락 인천논현점,"인천광역시 남동구 앵고개로847번길 80-9 (논현동, 뉴가산시티) 1층 121호",37.3992972,126.7235028
668,본 죽&비빔밥 인천동암역점,인천광역시 부평구 열우물로 22 (십정동) 부림빌딩 1층,37.4702645,126.7013897
669,본 죽&비빔밥 송도글로벌캠퍼스점,"인천 연수구 송도문화로28번길 28 (송도동, 송도글로벌캠퍼스푸르지오) 203동 3-127호",37.3766923,126.6536904
670,본 죽&비빔밥 송도퍼스트파크점,"인천광역시 연수구 컨벤시아대로230번길 42 (송도동, 송도아라플라자) 109호",37.3880856,126.6349147
671,본설렁탕 인천루원시티점,인천 서구 새오개로111번안길 19-1 (신현동) 108호,37.5224504,126.6633955
672,본 죽&비빔밥 인천선학점,인천 연수구 선학동 411-1 1층,37.4242357,126.6974982
673,본죽 인천학익점,인천광역시 미추홀구 매소홀로 468 (학익동) 목향빌딩내 1층,37.4393615,126.6739491
674,본 죽&비빔밥 인천경서점,"인천광역시 서구 경서로69번길 12 (경서동, 상현빌딩)",37.5587337,126.6522331
675,본죽 인천임학역점,인천광역시 계양구 장제로 899 (임학동),37.5470052,126.7399534
676,본 죽&비빔밥 인천백운역점,인천광역시 부평구 경원대로 1254 (산곡동),37.488585,126.709462
677,본도시락 인천검단점,"인천광역시 서구 원당대로 638 (당하동, 경원하이뷰) 101호",37.5934468,126.6718767
678,본도시락 인천삼산점,인천광역시 부평구 장제로 226 (부개동) 1층 일부,37.5057122,126.7314304
679,본 죽&비빔밥 구월아시아드점,"인천광역시 남동구 인하로 616 (구월동, 커뮤니티프라자) 1층 111호",37.442524,126.7152048
680,본죽 인천관교점,인천광역시 남동구 문화서로4번길 40 (구월동) 1층,37.4447446,126.6970956
681,본죽 부평영아사거리점,인천광역시 부평구 마장로 396-1 (청천동) 1층,37.5135199,126.704206
682,본 죽&비빔밥 인천논현점,"인천광역시 남동구 논고개로 117 (논현동, 메트로타워) 101호",37.4016866,126.7238651
683,본도시락 영종도운서점,"인천광역시 중구 영종대로 120 (운서동, 두손에어파스텔) 1층 102호",37.4948184,126.4926531
684,본 죽&비빔밥 인천용현2동점,인천광역시 미추홀구 낙섬중로 98 (용현동),37.4560473,126.6410865
685,본 죽&비빔밥 인천주안점,"인천광역시 미추홀구 미추홀대로 716 (주안동, 메인프라자) 104호",37.4612992,126.6806169
686,본도시락 인천청라점,"인천광역시 서구 청라라임로 57 (청라동, 영화블렌하임)",37.5327165,126.6528873
687,본 죽&비빔밥 인천연희연세병원점,인천광역시 서구 서곶로369번길 22 (연희동) 104호,37.5506129,126.6744695
688,본 죽&비빔밥 영종운서넙디점,인천광역시 중구 영종대로327번길 4 (운서동) 1층,37.4819666,126.5073925
689,본 죽&비빔밥 인천신기점,인천광역시 미추홀구 인하로 255 (주안동),37.4484326,126.6766164
690,본도시락 인천서창점,인천광역시 남동구 서창방산로158번길 2 (서창동) 허브빌딩,37.42712,126.7597298
691,본죽 인천구월점,"인천광역시 남동구 성말로13번길 15 (구월동, 메인프라자) 메인프라자 127호",37.4462791,126.7018166
692,본도시락 인천구월점,인천광역시 남동구 선수촌공원로 25 103호,37.4412795,126.7097701
693,본죽 인천서운점,인천광역시 계양구 효서로 366 (작전동) 1층,37.527683,126.736868
694,본죽 인천부평남부역점,인천광역시 부평구 경인로 951 (부평동) 1층,37.4877421,126.725367
695,본죽 송도캠퍼스타운점,"인천광역시 연수구 송도과학로27번길 55, B-103호",37.3881981,126.6650323
696,본죽 인천검단점,인천광역시 서구 완정로 144 프라임타워 108호,37.6012224,126.6601906
697,본죽 인천석바위점,인천광역시 남구 경원대로864번길 10 (주안동) 아카데미프라자 1층 103호,37.4595803,126.6902257
698,본죽 인천삼산점,인천광역시 부평구 체육관로 34 (삼산동) 이리옴프라자 102호,37.5082843,126.7354673
699,본 죽&비빔밥 송도신도시점,인천광역시 연수구 컨벤시아대로 69 송도밀레니엄 1층 136호,37.3957057,126.6509615
700,본죽 인천효성점,인천광역시 계양구 안남로 571 (효성동) 1층,37.5341269,126.7098186
701,본죽 부평부개역점,인천광역시 부평구 수변로 8 파워프라자 112호 (부개동),37.487237,126.7397241
702,본 죽&비빔밥 인천청라신도시점,인천광역시 서구 푸른로8번안길 6 (경서동),37.5251707,126.6293482
703,본도시락 부평역점,"인천광역시 부평구 경원대로 1415 파라움, 1층 102호",37.4915726,126.7263394
704,본 죽&비빔밥 인천부평점,인천광역시 부평구 부평문화로 51 1층,37.4941757,126.7218251
705,본죽 인천호구포역점,"인천광역시 남동구 호구포로 212 (논현동, 대양프라자빌딩) 103호",37.4017667,126.7099061
706,본 죽&비빔밥 인천연수점,인천광역시 연수구 먼우금로 194 (연수동) 두손메카 106호,37.414348,126.6770179
707,본도시락 인천길병원점,"인천광역시 남동구 구월남로 163 (구월동, 토성프라자) 101호",37.4532215,126.7077199
708,본죽 인천간석남부역점,인천광역시 남동구 주안로 231 (간석동) 1층,37.4635081,126.6955926
709,본죽 인천청학점,"인천광역시 연수구 용담로 3 (청학동, 시대아파트) 소망마트상가 101-5호",37.4228435,126.6698625
710,본도시락 인하대점,인천광역시 남구 능해길 8 (용현동) 1층,37.4595298,126.6381911
711,본죽 인천원당점,"인천광역시 서구 원당대로 876 (당하동, 희림타워) 103호",37.5931699,126.6988087
712,본죽 인천롯데캐슬힐스테이트점,"인천광역시 남동구 용천로 82 (구월동, 다옴프라자) 109호",37.4569462,126.7150431
713,본죽 인천가정점,인천광역시 서구 염곡로498번안길 20(가정동) 제이에스프라자 103호,37.5276254,126.670267
714,본죽 인천옥련점,인천광역시 연수구 독배로 41 (옥련동) 인영빌딩 1층,37.4244291,126.6443699
715,본죽 동인천점,"인천광역시 중구 우현로83번길 1 (인현동, 본죽) 1층",37.4743312,126.6302057
716,본죽 인천송림동점,인천광역시 동구 송림로 95-1 (송림동) 1층,37.4762341,126.6452374
717,본죽 공항신도시점,인천광역시 중구 영종대로 84 (운서동) 신공항파크빌1층,37.4949433,126.4885324
718,본죽 인천작전역점,"인천광역시 계양구 봉오대로 671 (작전동, 우남푸르미아) 우남푸르미아 102호",37.5309912,126.723564
719,본죽 인천만수점,"인천광역시 남동구 장승남로 38 (만수동, 반달프라자) 1층 104호",37.4431887,126.7364244
720,본 죽&비빔밥 인천송도포스코점,인천광역시 연수구 해돋이로 116 (송도동) 센트럴프라자 103호,37.3922222,126.6497427
721,본죽 인천서구청점,인천광역시 서구 탁옥로 57 1층,37.5440286,126.6761707
722,본죽 인천모래내시장점,인천광역시 남동구 호구포로 786 (구월동) 1층,37.4524936,126.7192616
723,본죽 인천학산사거리점,인천광역시 남구 매소홀로 355 (학익동) 109,37.441411,126.6620204
724,본죽 인천길병원점,인천광역시 남동구 남동대로 784 2층,37.4522536,126.7083384
725,본도시락 인천연수점,인천광역시 연수구 먼우금로 194 (연수동) 두손메카오피스텔 101호,37.414348,126.6770179
726,본도시락 인천주안점,인천광역시 남구 주안1동 141-5,37.4637233,126.6806031
727,본도시락 인천송도신도시점,"인천광역시 연수구 해돋이로 107 (송도동, 송도 더샵 퍼스트월드) 상가G동 67호, 53호",37.3911869,126.6478318
728,본도시락 인천서구청점,"인천광역시 서구 탁옥로 90 (심곡동, 덕산빌딩) 105호",37.5435463,126.6795185
729,본죽 인천송도역점,인천광역시 연수구 한나루로 190 (옥련동) 송도프라자 1층,37.4262605,126.6569272
730,본죽 인천신현점,인천광역시 서구 가정로 364 (가정동) 1층,37.517243,126.6731657
731,본죽 인천불로동점,"인천광역시 서구 검단로 842 (불로동, 월드불로마트) 월드아파트 1층 151호",37.6186271,126.6908918
732,본죽 인천당하점,인천광역시 서구 청마로 167번길 16 당하프라자 104호,37.5925853,126.6749619
733,본죽 인천간석사거리점,인천광역시 남동구 호구포로 914 1층,37.4638585,126.7209786
734,본 죽&비빔밥 인천청라엑슬루타워점,인천광역시 서구 중봉대로586번길 22 엑슬루타워 B동 107호,37.5314452,126.6515468
735,본 죽&비빔밥 인천신포동점,인천광역시 중구 신포로 18-1 (신생동),37.470644,126.6246054
736,본 죽&비빔밥 인천송도웰카운티점,"인천광역시 연수구 인천타워대로54번길 9 (송도동) 29,21번지",37.3789971,126.6459671
737,본 죽&비빔밥 인천검암점,인천광역시 서구 승학로 577 (검암동) 장은프라자 110호,37.567428,126.6832754
738,본죽 강화점,인천광역시 강화군 강화읍 강화대로 401,37.7457986,126.4864192
739,본죽 인천동양점,인천광역시 계양구 양지로 8-1 (동양동),37.5595838,126.7559689
740,본죽 인천계산4동점,인천광역시 계양구 용종로 2 (계산동) 계산프라자 103호,37.5340374,126.7415048
741,본죽 인천계산역점,인천광역시 계양구 경명대로 1096 (계산동) 계산메디칼센타 106호,37.5429398,126.7287171
742,본죽 인천신연수역점,"인천광역시 연수구 함박뫼로 250 (연수동, 풍림1차아파트) 107호",37.4178343,126.6918256
743,본죽 인천동춘점,인천광역시 연수구 앵고개로 260 (동춘동) 맘모스빌딩 104호,37.4076689,126.6723036
744,본죽 인천청라롯데캐슬점,인천광역시 서구 청라커낼로 252 청라롯데캐슬상가 D동 103호,37.5309927,126.6462981
745,본죽 인천석남점,인천광역시 서구 가정로 187 (석남동) 1층,37.5015221,126.6718241
746,본죽 인천가좌점,인천광역시 서구 원적로 77 (가좌동) 1층,37.4938636,126.6808028
747,본죽 인천청천점,인천광역시 부평구 마장로 456 (청천동) 1층,37.5188976,126.7048385
748,본죽 인천삼산미래타운점,인천광역시 부평구 부평북로 446 (삼산동) 103호 (부평북로 446,37.5216986,126.7430146
749,본죽 인천부평산곡점,인천광역시 부평구 안남로 269 대우푸르지오상가 107호,37.5072782,126.7074022
750,본죽 영종하늘도시점,인천광역시 중구 하늘중앙로195번길 29 (중산동) 진로프라자 1층 109호,37.4889847,126.5628385
751,본죽 인천송현점,인천광역시 동구 화수로 7 (송현동) 센타빌딩 101호,37.4803264,126.6360315
752,본죽 인천서창2지구점,인천광역시 남동구 서창남순환로 222 서창센타프라자 107호,37.4241594,126.7495132
753,본죽 인천서창점,인천광역시 남동구 장아산로 134-4 (서창동) 104호,37.439109,126.749149
754,본죽 인천만수주공점,인천광역시 남동구 만수로 55 (만수동) 1층,37.4609088,126.734209
755,본죽 인천길병원암센터점,인천광역시 남동구 구월남로 163 (구월동) 토성프라자 105-1호,37.4532215,126.7077199
756,본죽 인천간석동점,인천광역시 남동구 남동대로 886 (간석동) 102호,37.4616233,126.7087119
757,본죽 주안북부역점,인천광역시 남구 염창로 55 (주안동) 1층,37.4658491,126.680234
758,본죽 인천용현점,인천광역시 남구 매소홀로 63 (용현동) 대신프라자 1층102호,37.4501915,126.6332875
759,본죽 송도센트럴파크점,인천광역시 연수구 센트럴로 232 더샵센트럴파크1상가 D동 109호,37.3969322,126.6375938
760,본죽 인천만수역점,인천광역시 남동구 구월로 352 (만수동) 1층,37.4549208,126.7297137
761,본 죽&비빔밥 광주금남로점,광주광역시 동구 독립로 258 (금남로5가) 1층,35.1541972,126.910919
762,본 죽&비빔밥 광주돌고개역점,"광주광역시 남구 구성로8번길 6 (월산동, 반도유보라 더 퍼스트) B동 204호",35.1516793,126.8964545
763,본도시락 광주일곡오치점,"광주광역시 북구 설죽로 416 (삼각동, 신일곡골드클래스) 상가동 1층",35.1962154,126.9016515
764,본 죽&비빔밥 광주월곡점,광주광역시 광산구 사암로340번안길 20 (월곡동) 1층,35.1761348,126.8111314
765,본도시락 광주운암점,광주광역시 북구 북문대로 158 (운암동) 1층,35.1828307,126.8724085
766,본도시락 광주첨단신용점,광주광역시 북구 첨단연신로91번길 30 (신용동) 1층,35.2065065,126.8612155
767,본도시락 광주수완점,광주광역시 광산구 수완로 6 (신가동) 센트럴병원 1층,35.1854818,126.82926
768,본 죽&비빔밥 광주금호점,광주광역시 서구 금화로 91 (금호동) 1층,35.132669,126.8586685
769,본도시락 광주하남월곡점,광주광역시 광산구 사암로 339 (월곡동) 1층,35.1748356,126.8084613
770,본도시락 광주대점,광주광역시 남구 효덕로 276 (진월동) 1층,35.1081976,126.8972717
771,본 죽&비빔밥 광주두암말바우점,광주광역시 북구 동문대로 128 (두암동) 101호,35.1742243,126.9264286
772,본도시락 광주첨단점,"광주광역시 광산구 앰코로 35 (쌍암동, 폭스존) 1층",35.2215326,126.8523915
773,본 죽&비빔밥 광주백운대성초교점,광주 남구 중앙로 80 (서동) 101호,35.1433222,126.9072037
774,본 죽&비빔밥 광주백운고가점,"광주 남구 회재로 1257 (주월동, 예림장식) 1층",35.1347462,126.8981569
775,본 죽&비빔밥 광주연제점,광주 북구 양일로 58 (연제동) 신아빌딩 104호,35.197491,126.8712378
776,본도시락 광주금호점,"광주 서구 화개중앙로 55 (금호동, 화개빌딩) 1층",35.1247044,126.8558656
777,본 죽&비빔밥 광주봉선점,"광주 남구 봉선로 164 (봉선동, 삼환빌딩) 1층",35.1227757,126.9130959
778,본 죽&비빔밥 광주문흥점,광주광역시 북구 서하로 375 (문흥동) 1층,35.186014,126.921431
779,본 죽&비빔밥 광주상무점,"광주광역시 서구 치평로 80 (치평동, 골든타운) 111호",35.154554,126.8477042
780,본죽 광주운암점,광주광역시 북구 북문대로 154 (운암동),35.1825702,126.8726568
781,본 죽&비빔밥 광주효천1지구점,광주광역시 남구 효천2로가길 9 (임암동),35.1016172,126.8740723
782,본 죽&비빔밥 광주양산점,광주광역시 북구 양산로 2 (양산동) 1층,35.2109784,126.8747163
783,본 죽&비빔밥 광주운남점,광주광역시 광산구 하남대로 278-1 (운남동),35.1788338,126.8240147
784,본 죽&비빔밥 광주충장로점,광주광역시 동구 충장로 77-5 (충장로3가),35.1487533,126.9160291
785,본 죽&비빔밥 광주일곡점,광주광역시 북구 설죽로 505-9 (일곡동) 1층 도로시헤어,35.2038381,126.8970153
786,본죽 광주첨단2지구점,광주광역시 북구 첨단연신로91번길 10 (신용동),35.206545,126.8632654
787,본 죽&비빔밥 광주두암점,광주광역시 동구 밤실로 154 (산수동),35.1612221,126.9354186
788,본 죽&비빔밥 광주첨단점,광주광역시 광산구 첨단중앙로170번길 64 (쌍암동),35.2204552,126.845365
789,본죽 광주선운지구점,"광주광역시 광산구 선운중앙로 43 (선암동, 광주선운지구EGthe12단지)",35.149412,126.7763214
790,본 죽&비빔밥 광주첨단월계점,광주광역시 광산구 월계로 187 (월계동),35.2136586,126.8461579
791,본 죽&비빔밥 광주하남점,"광주광역시 광산구 풍영철길로 15 (우산동, 콜럼버스월드) 2층 213-2호",35.1628953,126.8116598
792,본죽 광주신창점,광주광역시 광산구 신창로 84 (신창동),35.192654,126.8374234
793,본도시락 광주조선대점,광주광역시 동구 필문대로 265 (동명동),35.1474329,126.9282131
794,본죽 광주쌍촌점,광주광역시 서구 상일로 56 (쌍촌동),35.1605542,126.8634411
795,본죽 광주광천점,광주광역시 서구 죽봉대로 95 (광천동),35.1619341,126.8831213
796,본 죽&비빔밥 광주풍암점,광주광역시 서구 풍암1로21번길 3-24 (풍암동),35.126491,126.8783129
797,본도시락 광주송정점,"광주광역시 광산구 상무대로 242 (송정동) ,102호",35.1404899,126.7940105
798,본죽 광주화정힐스테이트점,광주광역시 서구 화정로 247,35.1474517,126.883901
799,본죽 광주신가점,광주광역시 광산구 수등로 248 1층,35.1849698,126.8360382
800,본죽 광주풍암운리점,광주광역시 서구 풍암신흥로 29 (풍암동),35.1205086,126.8665468
801,본죽 광주운암고가점,광주광역시 북구 북문대로 19,35.1740314,126.8827041
802,본도시락 광주화정역점,광주광역시 서구 상무대로 1055 (화정동),35.1523051,126.8772354
803,본죽 광주염주점,광주광역시 서구 월드컵4강로 77 (화정동),35.1437818,126.8737808
804,본 죽&비빔밥 광주학동점,광주광역시 동구 제봉로 33 1층(학동),35.1415636,126.9209123
805,본도시락 광주전남대점,광주광역시 북구 서방로 11 (중흥동),35.1735356,126.9144097
806,본죽 광주수완장덕점,광주광역시 광산구 풍영로 275 (장덕동),35.1958788,126.8153736
807,본 죽&비빔밥 광주주월점,광주광역시 남구 대남대로 139 (주월동) 1층,35.1336726,126.9098142
808,본죽 광주진월점,광주광역시 남구 서문대로 683번지 (진월동),35.1202426,126.8985624
809,본 죽&비빔밥 광주노대점,광주광역시 남구 효우로 79-1 스카이빌딩 102,35.1063217,126.9045963
810,본도시락 광주상무점,광주광역시 서구 운천로 223 (치평동) 상무빌딩(아이퍼스트주차빌딩) 101호,35.152276,126.8544019
811,본죽 광주하남산정점,광주광역시 광산구 손재로110번길 21,35.1761168,126.798078
812,본 죽&비빔밥 광주수완점,광주광역시 광산구 임방울대로 335 102호,35.1900243,126.823195
813,본죽 광주용봉점,광주광역시 북구 설죽로 221 (용봉동),35.1794447,126.8975728
814,본죽 광주전남대후문점,광주광역시 북구 우치로 80 (용봉동),35.174639,126.9128979
815,본죽 광주동림점,광주광역시 서구 하남대로 692 (동천동),35.1714689,126.8684361
816,본죽 광주매곡점,광주광역시 북구 설죽로315번길 42 (매곡동),35.1892281,126.8946242
817,본죽 광주증심사입구역점,광주광역시 동구 남문로 677 (학동),35.1310601,126.9288781
818,본죽 광주송정점,광주광역시 광산구 내상로 21 (송정동),35.1398319,126.7960573
819,본 죽&비빔밥 대전관저더샵점,대전광역시 서구 관저로 24 (관저동) 1층,36.2962258,127.3265732
820,본 죽&비빔밥 대전송강점,대전광역시 유성구 구즉로 62 (송강동) 1층,36.4345586,127.3853849
821,본 죽&비빔밥 대전유성장대동점,대전광역시 유성구 문화원로 1 (장대동) 1층,36.3620763,127.337032
822,본 죽&비빔밥 대전학하점,대전광역시 유성구 학하중앙로59번길 5-13 (덕명동) 1층,36.3463895,127.3013981
823,본 죽&비빔밥 대전가오동점,"대전광역시 동구 은어송로 56 (가오동, 1) 101호",36.3058895,127.4557087
824,본 죽&비빔밥 대전노은3지구점,대전광역시 유성구 지족동로 152 (지족동) 코오롱타워 103호,36.3874466,127.3087746
825,본 죽&비빔밥 대전유성온천역점,"대전광역시 유성구 계룡로 92 (봉명동, 유성CJ나인파크) 104호",36.3534783,127.3406333
826,본 죽&비빔밥 대전월평이마트점,"대전광역시 서구 월평로 40 (월평동, 월드프라자) 101호",36.3559932,127.3616422
827,본 죽&비빔밥 대전목동점,대전광역시 중구 목중로 47 (목동) 1층,36.3374802,127.4093222
828,본 죽&비빔밥 대전신탄점,"대전광역시 대덕구 대덕대로 1555 (석봉동, 금강엑슬루타워) 122호",36.451758,127.420464
829,본 죽&비빔밥 대전용문점,대전광역시 서구 계룡로 625 (탄방동) 1층,36.3395972,127.392051
830,본 죽&비빔밥 대전성모병원점,"대전 중구 대흥로 64 (대흥동, 성모병원) 1층",36.323042,127.420163
831,본 죽&비빔밥 대전하기동점,대전광역시 유성구 송림로 52 (하기동) 105호,36.387019,127.3235593
832,본 죽&비빔밥 대전송촌점,"대전광역시 대덕구 동춘당로126번길 2 (송촌동, 아이프라자) 1층",36.3674673,127.4375617
833,본 죽&비빔밥 대전역점,대전광역시 동구 대전로 816 (정동) 1층,36.332302,127.432377
834,본 죽&비빔밥 충남대병원점,"대전광역시 중구 문화로 282 (대사동, 충남대학교병원) B1층 구내식당",36.316908,127.415363
835,본 죽&비빔밥 대전부사점,대전광역시 중구 보문로 49 (문창동),36.3132349,127.4356023
836,본 죽&비빔밥 대전월평점,대전광역시 서구 월평북로 83 (월평동),36.3624494,127.3776527
837,본 죽&비빔밥 대전건양대병원점,"대전광역시 서구 관저동로 162 (관저동, 건양프라자)",36.3065708,127.3411451
838,본도시락 대전관저점,대전광역시 서구 구봉로 121 (관저동) 1층 105호 (하나로프라자),36.2966963,127.3363261
839,본 죽&비빔밥 대전도룡점,대전광역시 유성구 가정로 306 (도룡동),36.385427,127.3768472
840,본 죽&비빔밥 서대전점,"대전광역시 중구 계백로 1717 (오류동, 고려빌딩)",36.3220255,127.4101601
841,본도시락 서대전역점,"대전광역시 중구 오류로 18 ,1층(오류동)",36.3221454,127.4052125
842,본죽 대전관저점,대전광역시 서구 관저중로96번길 12 (관저동) 1층,36.300493,127.3356567
843,본 죽&비빔밥 대전법동점,대전광역시 대덕구 계족산로17번길 115 (법동),36.3669402,127.4317869
844,본도시락 대전월평선사점,대전광역시 서구 대덕대로 319 (월평동) 1층 117호,36.3614401,127.3789515
845,본죽 도마사거리점,대전광역시 서구 도산로 42 (도마동) 1층,36.3128903,127.3810247
846,본도시락 대전목원대점,대전광역시 서구 동서대로 688 (도안동 ) 에프엠프라임 1층 107호,36.3318239,127.3394344
847,본죽 대전반석역점,대전광역시 유성구 반석로 19 (반석동),36.3913655,127.3124691
848,본죽 대전가수원점,대전광역시 서구 원도안로179번길 6(도안동) 1층 102호,36.3196832,127.3438663
849,본 죽&비빔밥 대전둔산점,대전광역시 서구 둔산로 8 (둔산동),36.352318,127.3748872
850,본죽 대전진잠점,대전광역시 유성구 원내로 37(원내동) 1층,36.3000665,127.3198586
851,본죽 대전도마동점,대전광역시 서구 배재로 166 (도마동),36.3232776,127.3704825
852,본죽 대전전민동점,대전광역시 유성구 전민로22번길 58 (전민동),36.3989913,127.4027532
853,본도시락 대전신탄진점,"대전광역시 대덕구 대덕대로 1555 (석봉동, 금강엑슬루타워) 상가동 125호",36.451758,127.420464
854,본죽 대전대동오거리점,대전광역시 동구 동대전로 72(대동) 2층,36.3290788,127.4424748
855,본죽 대전내동외고점,"대전광역시 서구 신갈마로 51, B121호(내동,더리치빌상가)",36.3387766,127.3661455
856,본 죽&비빔밥 대전도안신도시점,대전광역시 유성구 도안대로 512-12 (봉명동),36.3456555,127.3408727
857,본 죽&비빔밥 대전복합터미널점,대전광역시 동구 동서대로 1688 (성남동) 103호,36.3488949,127.437419
858,본죽 대전문화산성점,대전광역시 중구 산성로 125 (문화동),36.3113539,127.4007663
859,본 죽&비빔밥 대전어은점,대전광역시 유성구 어은로58번길 10 (어은동),36.363435,127.3569596
860,본죽 대전죽동점,대전광역시 유성구 죽동로297번길 72 (죽동) KJ빌딩,36.3700384,127.3387784
861,본죽 대전삼천동점,대전광역시 서구 둔산로 223 (둔산동) 청솔아파트 상가 1층,36.352702,127.3990784
862,본죽 대전용운점,대전광역시 동구 계족로140번길 191 (용운동),36.3281729,127.4548152
863,본죽 대전복수점,대전광역시 서구 복수동로 54 (복수동),36.2994928,127.3784029
864,본죽 대전도안목원대점,대전광역시 서구 동서대로 692 (도안동) 105호,36.3318258,127.3398562
865,본죽 대전신성자운대점,대전광역시 유성구 신성남로 31-1 (신성동),36.3865389,127.3486895
866,본죽 대전태평점,대전광역시 중구 태평로 18 (유천동) 1층 본죽,36.3183918,127.3922809
867,본도시락 대전타임월드점,대전광역시 서구 둔산로31번길 72 (둔산동) 홀리뷰빌딩 102호,36.3548531,127.3777998
868,본도시락 대전충남대점,대전광역시 유성구 궁동로18번길 73(궁동 1층),36.3628748,127.3514503
869,본도시락 대전한남대점,대전광역시 대덕구 한남로 35 (오정동),36.3509702,127.4244071
870,본도시락 대전우송대점,대전광역시 동구 백룡로 3-1 (자양동),36.3363965,127.4477605
871,본도시락 대전대덕테크노벨리점,대전광역시 유성구 테크노4로 115 (관평동),36.4244246,127.3891711
872,본도시락 유성봉명점,대전광역시 유성구 봉명동 561-8,36.355835,127.3364047
873,본도시락 대전둔산점,대전광역시 서구 둔산로137번길 27,36.3525794,127.3889688
874,본죽 대덕테크노밸리점,"대전광역시 유성구 테크노4로 119(관평동,리치스카이타워1층103호)",36.4240924,127.3889989
875,본죽 대전노은점,대전광역시 유성구 노은로 178 (지족동) 금강프라자 105,36.3756014,127.3185157
876,본죽 대전가장동점,대전광역시 서구 가장로 107 (가장동) 래미안@ 별리상가114호,36.3343599,127.3871397
877,본죽 대전은행동점,대전광역시 중구 대종로 498 (은행동) 1층 본죽,36.3289847,127.4257869
878,본죽 대전둔산로데오점,대전광역시 서구 문정로 77 (탄방동) 로데오타운 321호,36.3473187,127.387991
879,본죽 대전한남대점,대전광역시 동구 한남로 2-1 (홍도동),36.3515207,127.4278376
880,본죽 대전정림점,대전광역시 서구 정림로 72-1 (정림동),36.3068643,127.3650618
881,본죽 대전오정점,대전광역시 대덕구 한밭대로 1006 (오정동),36.35788,127.4104934
882,본죽 대전비래점,대전광역시 대덕구 비래동로 39 (비래동),36.357492,127.4508564
883,본죽 대전판암점,대전광역시 동구 옥천로 168 (판암동),36.3167822,127.459161
884,본도시락 대전중구청점,대전광역시 중구 충무로107번길 100 센트럴자이2단지 제상가동 102호,36.3222413,127.42775
885,본 죽&비빔밥 대전둔산법원점,대전광역시 서구 둔산중로72번길 32 아크로프라자,36.3528882,127.3886705
886,본죽 대전태평쌍용예가점,대전광역시 중구 평촌로 102 (유천동),36.3224854,127.3981369
887,본 죽&비빔밥 울산서동점,울산광역시 중구 동천서로 56 (서동) 104호,35.5838478,129.3447183
888,본도시락 울산옥동점,울산광역시 남구 대공원입구로21번길 44 (옥동) 1층,35.5347095,129.2897871
889,본 죽&비빔밥 울산청량점,"울산광역시 울주군 청량읍 상남길 25 (상남리, 울주상남골드클래스) 상가동 108호",35.483564,129.3050292
890,본 죽&비빔밥 울산성남점,울산광역시 중구 중앙길 142 (성남동) 1층 본죽&비빔밥 울산성남점,35.5559198,129.3213036
891,본 죽&비빔밥 울산성안점,울산광역시 중구 성안로 160 (성안동) 103호,35.5747003,129.3162074
892,본 죽&비빔밥 울산남목점,울산광역시 동구 방어진순환도로 1120 (서부동) 본죽&비빔밥 울산남목점,35.5393909,129.4264932
893,본 죽&비빔밥 울산구영점,"울산광역시 울주군 범서읍 점촌3길 8-15 (구영리, 지에스프라자) 본죽&비빔밥 울산구영점",35.574774,129.2405384
894,본 죽&비빔밥 울산염포점,울산광역시 북구 염포로 615 (염포동) 본죽&비빔밥 울산염포점,35.5370463,129.3883481
895,본 죽&비빔밥 울산우정점,"울산광역시 중구 평동3길 1 (유곡동, 울산 유곡 푸르지오) 122동 108호",35.5608427,129.3046325
896,본 죽&비빔밥 울산월드점,"울산광역시 북구 괴정1길 114 (매곡동, 아이마음소아청소년병원) 103호",35.6425369,129.3574932
897,본 죽&비빔밥 울산공업탑점,울산광역시 남구 봉월로 10 (신정동) 1호,35.5334233,129.3073018
898,본 죽&비빔밥 울산태화점,"울산 중구 신기14길 1 (태화동, 일신아파트) 상가 106호",35.5523853,129.297101
899,본도시락 울산범서점,울산광역시 울주군 범서읍 구영로 162 103호,35.5682607,129.2437622
900,본 죽&비빔밥 울산명촌점,울산 북구 명촌로 29 (진장동) 1층,35.5577012,129.357171
901,본도시락 울산혁신점,울산광역시 중구 종가2길 40 (유곡동) 102호,35.5588303,129.2938324
902,본도시락 울산중구청점,울산광역시 중구 화합로 377 (반구동),35.5594449,129.3400027
903,본 죽&비빔밥 울산송정점,울산 북구 박상진12로 11 (송정동) 1층,35.6014883,129.3653329
904,본죽 울산굴화점,울산광역시 울주군 범서읍 장검길 10 (울산원예농협하나로마트) 농협하나로마트,35.5576485,129.2540428
905,본 죽&비빔밥 울산삼산점,울산광역시 남구 삼산로253번길 7 (달동),35.5396178,129.3343359
906,본도시락 울산삼산점,울산광역시 남구 돋질로 202 (달동) 1층,35.5417459,129.3275217
907,본 죽&비빔밥 울산약사점,울산광역시 중구 번영로 487 (약사동) 1층,35.5650568,129.3366792
908,본 죽&비빔밥 울산화봉점,"울산광역시 북구 상방로 110 (연암동, 성원아파트) 제상가6동 109호",35.5873696,129.3656073
909,본도시락 울산대점,울산광역시 남구 신복로6번길 17 (무거동) 지하1층 102호,35.5490161,129.2618243
910,본 죽&비빔밥 울산매곡점,울산광역시 북구 매곡1로 46 (매곡동),35.6447162,129.3512761
911,본죽 울산일산테라스파크점,울산광역시 동구 방어진순환도로 652 C동 1층 115호,35.4997805,129.4288433
912,본 죽&비빔밥 울산야음점,"울산광역시 남구 수암로149번길 9 (야음동, 대하미르빌주상복합아파트)",35.527582,129.322443
913,본죽 울주덕신점,울산광역시 울주군 온산읍 덕신로 269,35.4340614,129.3109787
914,본 죽&비빔밥 울산무거점,울산광역시 남구 옥현로46번길 5-12 (무거동),35.540828,129.2619792
915,본 죽&비빔밥 울산강동산하점,울산광역시 북구 산하중앙2로 283,35.6357082,129.4379723
916,본죽 울산온양점,울산광역시 울주군 온양읍 온양로 89번지,35.4105436,129.2814868
917,본 죽&비빔밥 울산달동굿모닝점,울산광역시 남구 삼산로 123 눈높이 울산센터,35.5359879,129.3208438
918,본죽 울산병원점,울산광역시 남구 번영로 223 극동스타클래스 105호,35.5446335,129.324366
919,본도시락 울산달동야음점,울산광역시 남구 수암로 123,35.5282127,129.3210596
920,본죽 울산옥동점,울산광역시 남구 문수로344번길 1 (옥동),35.5342267,129.2910961
921,본 죽&비빔밥 울산호계점,울산광역시 북구 호계로 329 문화청솔아파트상가 102호,35.6323234,129.3499304
922,본 죽&비빔밥 울산신정시장점,울산광역시 남구 중앙로 237,35.5419779,129.3110983
923,본죽 울산쌍용아진점,울산광역시 북구 신답로 36 (상안동),35.6292662,129.3441047
924,본죽 울산명덕현대점,울산광역시 동구 방어진순환도로 917,35.5230494,129.4325907
925,본죽 언양점,울산광역시 울주군 삼남면 교동리 남상평2길 2,0.0,0.0
926,본죽 울산전하점,"울산광역시 동구 전하로 37, 103동 102호",35.5125625,129.4265791
927,본 죽&비빔밥 산본학원가점[산본제일병원],"경기도 군포시 산본로 394 (산본동, 대림프라자) 105호",37.3651307,126.9297429
928,본 죽&비빔밥 신영통반월점,"경기도 화성시 영통로61번길 6 (반월동, 제일프라자) 1층",37.2355008,127.0611248
929,본 죽&비빔밥 광주회덕점,경기도 광주시 이배재로 150 (목현동) 109호 본죽&비빔밥 광주회덕점,37.42904,127.239421
930,본 죽&비빔밥 일산백마점,"경기도 고양시 일산동구 일산로 238 (마두동, 대일빌딩) 1층",37.6575096,126.7886801
931,본 죽&비빔밥 병점역점,경기도 화성시 병점2로 12 (병점동) 1층,37.2053396,127.0384314
932,본설렁탕 파주운정역점,"경기도 파주시 책향기로 836 (와동동, 아름터타워) 111호",37.7292709,126.7637605
933,본 죽&비빔밥 평택지제점,경기도 평택시 동삭1로22번길 19-6 (동삭동) 더원주차프라자 112호,37.0204917,127.0939539
934,본도시락 동탄반도체점,"경기도 화성시 삼성1로 160 (석우동, 디지털스테이션) 113호",37.2182053,127.0778933
935,본 죽&비빔밥 양주광적점,경기도 양주시 광적면 가래비길 83 (가납리) 1층,37.8238298,126.9844345
936,본 죽&비빔밥 용인죽전사거리점,"경기도 용인시 수지구 대지로 43 (죽전동, 금강프라자) 113호",37.3286455,127.1142765
937,본 죽&비빔밥 포천송우점,경기도 포천시 소흘읍 송우로 38 (송우리),37.8284909,127.144854
938,본 죽&비빔밥 안산그랑자이점,"경기도 안산시 상록구 해안로 776 (사동, 그랑시티타이 LIFE AVENUE) 102호",37.2844114,126.8315599
939,본 죽&비빔밥 의정부시청점,"경기도 의정부시 시민로 39 (의정부동, 대정프라자) 1층",37.738553,127.0394526
940,본 죽&비빔밥 시흥배곧한라점,"경기도 시흥시 배곧1로 27-15 (배곧동, 한라비발디캠퍼스) 상가3동 104호",37.3642786,126.7129077
941,본설렁탕 병점진안점,"경기도 화성시 효행로 1059 (진안동, 미래프라자) 109호",37.2147367,127.0426677
942,본 죽&비빔밥 부천옥길점,"경기도 부천시 옥길로 121 (옥길동, 씨티프라자) 104호",37.4677679,126.8223299
943,본 죽&비빔밥 의정부고산점,"경기도 의정부시 서광로 135 (산곡동, 센타프라자) 1층 103호",37.7289622,127.1109434
944,본 죽&비빔밥 여주오학점,경기도 여주시 도예로 53 (현암동),37.3081865,127.6423599
945,본설렁탕 수원아주대점,경기도 수원시 팔달구 중부대로 229 (우만동) GS타워 103호,37.2760097,127.0414076
946,본 죽&비빔밥 동탄능동점,"경기도 화성시 동탄지성로 133 (능동, 덕천프라자) 108호",37.209138,127.0607765
947,본 죽&비빔밥 시흥배곧점,"경기도 시흥시 서울대학로278번길 19-8 (배곧동, 새롬프라자) 115호",37.3698357,126.7283539
948,본 죽&비빔밥 포천점,경기도 포천시 포천로 1577 (신읍동) 1층,37.8983143,127.203807
949,본도시락 판교파미어스점,경기도 성남시 수정구 창업로 17 (시흥동) 지하1층 B105-2,37.4121779,127.0976007
950,본설렁탕 시흥시청점,"경기도 시흥시 시청로68번길 4 (장현동, 장현1 엔플러스빌) 106, 107호",37.3803562,126.8007317
951,본 죽&비빔밥 성남신시청점,경기도 성남시 중원구 성남대로997번길 25-15 (여수동) 1층 본죽&비빔밥 성남신시청점,37.4176895,127.1264343
952,본 죽&비빔밥 부천중동역점,경기도 부천시 중동로 48 (송내동) 대우프라자 1층 109호,37.4843269,126.7642489
953,본 죽&비빔밥 일산가좌점,경기도 고양시 일산서구 가좌3로 7-1 (가좌동) 나동 102호,37.6854238,126.7201881
954,본 죽&비빔밥 성남도촌점,"경기도 성남시 중원구 도촌남로 27 (도촌동, 동강프라자) 111호",37.414505,127.1506173
955,본 죽&비빔밥 용인구갈점,"경기도 용인시 기흥구 관곡로 92 (구갈동, 신건프라자) 104호",37.2805021,127.1135214
956,본 죽&비빔밥 용인신갈점,"경기도 용인시 기흥구 새천년로26번길 2 (신갈동, 센타프라자) 110호",37.2890492,127.1119587
957,본도시락 안산시청점,경기도 안산시 단원구 원고잔로 17 (고잔동) 에비뉴 큐브시티 오피스텔 1층 상가,37.3191321,126.8274978
958,본 죽&비빔밥 시흥장곡점,경기도 시흥시 장현장곡로 2 (장곡동) 103호,37.3788623,126.7892983
959,본죽 용인서천점,"경기도 용인시 기흥구 서천로 121 (서천동, 원희캐슬 서천프라자) 112호",37.2371504,127.0727242
960,본 죽&비빔밥 구리갈매점,경기도 구리시 갈매중앙로 70 (갈매동) 1층 120호,37.6305524,127.1171456
961,본 죽&비빔밥 분당정자네이버점,"경기도 성남시 분당구 정자일로 100 (정자동, 미켈란쉐르빌) 1층 본죽&비빔밥 분당정자네이버점",37.3590995,127.1069711
962,본 죽&비빔밥 안양1번가점,경기도 안양시 만안구 안양로 276 (안양동) 1층,37.3972975,126.9230585
963,(취소)본 죽&비빔밥 남양주호평알프하임점,"경기도 남양주시 백봉로 32 (호평동, 두산 알프하임) A동 상가 107호",37.6524456,127.2539757
964,본 죽&비빔밥 광교중흥점,"경기도 수원시 영통구 광교호수공원로 277 (원천동, 광교중흥에스클래스) B2 11호",37.2824071,127.0582392
965,본 죽&비빔밥 곤지암점,경기도 광주시 곤지암읍 곤지암로 65 (곤지암리) 1층 본죽&비빔밥 곤지암점,37.3494687,127.3394121
966,본도시락 동탄2신도시점,경기도 화성시 동탄대로 599 (영천동) 지엘프라자 108호,37.2071863,127.0983335
967,본 죽&비빔밥 일산식사점,경기도 고양시 일산동구 위시티로 67 (식사동) 103호,37.6781255,126.8108677
968,본 죽&비빔밥 부천소사본동점,경기도 부천시 소사로 220 (소사본동) 101호,37.4778574,126.7957323
969,본설렁탕 시흥배곧점,"경기도 시흥시 서울대학로278번길 19-8 (배곧동, 새롬프라자) 1층 107호",37.3698357,126.7283539
970,본도시락 양주덕정점,경기도 양주시 독바위로 9 (덕정동) 1층,37.840385,127.0629577
971,본도시락 미사강변점,경기도 하남시 미사강변한강로 135 (망월동) 지식산업센터 나동 1층134호,37.5766518,127.1917806
972,본 죽&비빔밥 평택시청점,"경기도 평택시 평택5로20번길 39 (합정동, 합정동 타임스퀘어) 1층 제104호",36.9899939,127.1131898
973,본 죽&비빔밥 수원성빈센트병원점,"경기도 수원시 팔달구 중부대로 110 (인계동, 한라시그마팰리스) 101호",37.2774567,127.0288321
974,본 죽&비빔밥 군포부곡점,"경기도 군포시 군포첨단산업2로 4 (부곡동, 티타워) 1층",37.3258026,126.9403251
975,본설렁탕 의왕삼동점,경기도 의왕시 오봉산단3로 25 (삼동) 더리브비즈원 126호,37.3284916,126.9533489
976,본 죽&비빔밥 남양주진접더샵점,경기도 남양주시 진접읍 부평로48번길 140 (부평리) 상가 3동 106호,37.7375732,127.1979609
977,본 죽&비빔밥 분당오리무지개점,"경기도 성남시 분당구 구미로 60 (구미동, 관보쇼핑) 107호",37.337805,127.115704
978,본 죽&비빔밥 하남덕풍점,"경기도 하남시 신장로 151 (덕풍동, 대동피렌체) 105호",37.53948,127.2016294
979,본 죽&비빔밥 의정부을지대병원점,경기도 의정부시 동일로747번길 57 (금오동) 205호,37.7505471,127.0497516
980,본 죽&비빔밥 경기광주초월점,경기도 광주시 초월읍 경충대로 1083 (쌍동리) 1층,37.3737927,127.2976593
981,본설렁탕 동탄첨단점,경기도 화성시 동탄첨단산업1로 51-9 (영천동) 동탄M타워 135호,37.2141143,127.0899722
982,본 죽&비빔밥 수원화서사거리점,"경기도 수원시 팔달구 동말로78번길 3 (화서동, 한흥빌딩) 본죽&비빔밥 수원화서사거리점",37.2786454,127.0027765
983,본도시락 파주교하산내마을점,"경기도 파주시 파주로 266 (동패동, 아이비타워) 101호",37.7261531,126.7182081
984,본도시락 전곡점,경기도 연천군 전곡읍 전곡로164번길 6-1 (전곡리) 1층,38.0266737,127.068277
985,본도시락 수지성복역점,"경기도 용인시 수지구 성복2로76번길 26-3 (성복동, 드림타워) 205호",37.3152915,127.0807766
986,본 죽&비빔밥 역곡북부역점,"경기도 부천시 역곡로 24 (역곡동, 덕산빌딩) 104호",37.4873745,126.8110659
987,본 죽&비빔밥 의왕고천점,"경기도 의왕시 전주남이길 8 (오전동, 목화케이티이자리에) 1층",37.3504088,126.9755511
988,본 죽&비빔밥 평촌나눔초교점,"경기도 안양시 동안구 흥안대로414번길 34 (평촌동, 천사유치원) 1층",37.3905168,126.9759657
989,본도시락 화정점,"경기도 고양시 덕양구 화신로 263 (화정동, 브릿지타워(BRIDGE TOWER)) 2층 206호",37.6304621,126.8320507
990,본도시락 광명역점,경기도 광명시 일직로 72 (일직동) 광명무역센터(일직동) C동 117호,37.4200359,126.889187
991,본 죽&비빔밥 범계로데오점,경기도 안양시 동안구 평촌대로223번길 48 (호계동) 2층,37.3907768,126.9529595
992,본 죽&비빔밥 일산킨텍스역점,"경기도 고양시 일산서구 킨텍스로 240 (대화동, 킨텍스 꿈에그린) 145호",37.6659014,126.7504499
993,본 죽&비빔밥 수지상현점,"경기도 용인시 수지구 만현로 110 (상현동, 원희캐슬프라자) b동 109호",37.3067226,127.0848651
994,본설렁탕 분당야탑점,"경기도 성남시 분당구 장미로 42 (야탑동, 야탑리더스) 제1층 제114호",37.4135005,127.1254995
995,본 죽&비빔밥 고양서정마을점,"경기도 고양시 덕양구 중앙로 450 (행신동, 명성프라자) 110호",37.6184381,126.8455531
996,본 죽&비빔밥 남양주다산지금점,"경기도 남양주시 다산지금로 127 (다산동, 다산지금지구 근생8-1) 1층 103호",37.6016355,127.1744505
997,본 죽&비빔밥 파주운정역점,"경기도 파주시 경의로1240번길 31 (와동동, 현해프라자) 107호",37.7282179,126.7627348
998,본 죽&비빔밥 성남중앙시장점,"경기도 성남시 수정구 수정로 131 (태평동, 낙원스카이뷰) 105호 본죽&비빔밥 성남중앙시장점",37.442059,127.134655
999,본설렁탕 광교중앙점,"경기도 수원시 영통구 센트럴타운로 106 (이의동, 센트럴프라자) 107호",37.2927376,127.0501574
1000,본도시락 의정부금오점,"경기도 의정부시 장곡로596번길 15 (신곡동, 우정프라자) 107호",37.749278,127.0694741
1001,본도시락 의왕역점,경기도 의왕시 신장승길 29 (삼동) 퍼스트힐 1층,37.3206138,126.9570952
1002,본 죽&비빔밥 김포장기초당마을점,"경기도 김포시 김포한강2로 96 (장기동, 계림프라자투) 101호",37.6388926,126.6727827
1003,본 죽&비빔밥 오산수청점,"경기도 오산시 내삼미로 83 (수청동, 센타프라자) 1층, 101호",37.1696464,127.0660073
1004,본 죽&비빔밥 부천여월점,"경기도 부천시 여월로 72 (여월동, 여월프라자) 101호",37.5117693,126.8063007
1005,본도시락 남양주호평점,경기도 남양주시 천마산로16번길 5 (호평동) 1층 101호,37.6638396,127.2481594
1006,본도시락 김포구래점,"경기도 김포시 김포한강8로 332 (구래동, 호반베르디움 더 레이크 3차) 103호",37.6455553,126.6327329
1007,본 죽&비빔밥 이천하이닉스점,경기도 이천시 부발읍 경충대로 2100 (아미리) 107호,37.2525338,127.4899266
1008,본도시락 일산탄현점,"경기도 고양시 일산서구 탄현로 95 (탄현동, 탄현마을10단지) 1층",37.6999269,126.7680325
1009,본 죽&비빔밥 분당야탑역점,"경기도 성남시 분당구 성남대로926번길 6 (야탑동, 야탑 대덕프라자) 205호",37.4121577,127.1298637
1010,본 죽&비빔밥 철산역점,"경기도 광명시 오리로 857 (철산동, 일청빌딩) 205호",37.4749016,126.8662685
1011,본 죽&비빔밥 평택법원점,"경기도 평택시 평남로 1015 (동삭동, 서재프라자) 103호",37.0093427,127.0983146
1012,본 죽&비빔밥 부천고강점,경기도 부천시 역곡로 491 (고강동) 1층,37.5285603,126.8156206
1013,본 죽&비빔밥 포천일동점,경기도 포천시 일동면 소야길 17 (기산리) 1층,37.9560126,127.3145057
1014,본 죽&비빔밥 수원파장점,"경기도 수원시 장안구 정자로 155 (정자동, 훼미리치과) 본죽",37.3048885,126.992631
1015,본 죽&비빔밥 산본중심점,"경기도 군포시 산본로323번길 26-18 (산본동, 거성빌딩1차) 102호",37.3591574,126.9309771
1016,본도시락 동두천점,경기도 동두천시 평화로2313번길 7-5 (지행동) 1층,37.8940388,127.0571581
1017,본도시락 삼송점,경기도 고양시 덕양구 삼송로 222 (삼송동) 현대 헤리엇 상가 2층 229호,37.6531312,126.8986824
1018,본도시락 남양주마석점,경기도 남양주시 화도읍 경춘로 1943 (창현리) 미리내빌딩 1층,37.6514701,127.304259
1019,본도시락 용인수지구청점,"경기도 용인시 수지구 풍덕천로148번길 4 (풍덕천동, 하나마트) 102호",37.3238829,127.0978463
1020,본도시락 병점점,경기도 화성시 효행로 1016 (진안동) 102호,37.2124059,127.0388292
1021,본 죽&비빔밥 남양주금곡점,"경기도 남양주시 금곡로 72 (금곡동, 센타프라자) 1층",37.6345001,127.2111479
1022,본도시락 화성향남점,"경기도 화성시 향남읍 행정중앙2로 63-34 (행정리, 명신프라자2) 1층",37.13059,126.9225346
1023,본 죽&비빔밥 부천오정점,"경기도 부천시 오정로 246 (오정동, 신오빌딩2) 1층",37.5293791,126.7862849
1024,본도시락 고덕삼성점,경기도 평택시 고덕여염12길 116 (고덕동) 1층,37.0424906,127.054116
1025,본 죽&비빔밥 시흥거모점,"경기도 시흥시 군자로 507 (거모동, 군자프라자) 113호",37.3447995,126.7852918
1026,본 죽&비빔밥 양주고읍점,경기도 양주시 고읍남로 15 (광사동) 마들프라자 104호,37.7947231,127.0799578
1027,본도시락 파주문산점,경기도 파주시 문산읍 우계로 424 (선유리) 1층 113호,37.8567343,126.7974747
1028,본도시락 일산동국대병원점,"경기도 고양시 일산동구 위시티로 25 (식사동, 부경빌딩) 1층",37.6754955,126.8079156
1029,본 죽&비빔밥 평택고덕국제점,"경기도 평택시 고덕중앙로 200-4 (고덕동, 우성고덕타워) 1층 120호",37.0477733,127.0442098
1030,본 죽&비빔밥 파주문산점,"경기도 파주시 문산읍 문향로75번길 19-12 (문산리, 삼성멀티프라자) 1층",37.8586791,126.7844405
1031,본설렁탕 의정부금오점,"경기도 의정부시 부용로 105 (금오동, 프레티넘프라자2) 1층 107호",37.7512937,127.0693544
1032,본 죽&비빔밥 광주능평점,경기도 광주시 오포읍 능평로 221 (능평리) 1층,37.3441401,127.1791114
1033,본 죽&비빔밥 광주탄벌점,경기 광주시 포돌이로 6-1 (탄벌동) 1층,37.4151226,127.2504332
1034,본 죽&비빔밥 원흥지구점,"경기도 고양시 덕양구 도래울로 54 (도내동, 도래올빌딩) 106호",37.6306827,126.8695918
1035,본 죽&비빔밥 안산본오점,"경기도 안산시 상록구 샘골로 144 (본오동, 유경빌딩) 103호",37.2966193,126.8633526
1036,본 죽&비빔밥 시흥능곡점,"경기도 시흥시 승지로59번길 1 (능곡동, 건아빌딩) 103호",37.3692092,126.8099669
1037,본도시락 수원정자점,경기도 수원시 장안구 정자천로 179 (정자동) 1층,37.2961328,126.9951142
1038,본도시락 행신역점,경기도 고양시 덕양구 소원로 111 (행신동) 라온팰리스오피스텔 1층 102호,37.6130593,126.8353645
1039,본설렁탕 파주운정점,경기도 파주시 청암로17번길 31 (목동동) 110호,37.7284902,126.7359063
1040,본도시락 남양주평내점,경기도 남양주시 경춘로1308번길 4 (평내동) 1층,37.6500996,127.238339
1041,본 죽&비빔밥 하남감일점,"경기도 하남시 감일백제로 105 (감이동, 신성메디타워) 107호",37.5046789,127.161231
1042,본 죽&비빔밥 분당카페거리점,"경기 성남시 분당구 정자일로 230 (정자동, 동양정자파라곤) 113호",37.3701427,127.1066661
1043,본 죽&비빔밥 광주양벌점,"경기 광주시 오포읍 양벌로 207 (양벌리, 백두산빌딩) 1층",37.3783011,127.2543811
1044,본 죽&비빔밥 마석역점,경기 남양주시 화도읍 마석중앙로 76 (마석우리) 1층,37.6519494,127.3081085
1045,본 죽&비빔밥 김포신곡점,경기 김포시 고촌읍 수기로 115 (신곡리) 센트럴타워 103호,37.5934718,126.7636061
1046,본 죽&비빔밥 송탄점,경기도 평택시 관광특구로 13 (서정동) 101호,37.0672305,127.0605462
1047,본 죽&비빔밥 구리한대병원점,"경기 구리시 경춘로 160 (교문동, 도양빌딩) 1층",37.6004756,127.1330145
1048,본 죽&비빔밥 일산덕이점,경기 고양시 일산서구 덕이동 1543 금문프라자 101호,37.6990688,126.7535604
1049,본죽 평택소사벌점,"경기 평택시 평남로 858 (비전동, 삼성타워) 1층",37.0001292,127.1115767
1050,본죽 부천팰리스중동시장점,"경기도 부천시 장말로216번길 3 (중동, 팰리스카운티) 103호",37.4923331,126.766188
1051,본 죽&비빔밥 수원세류점,"경기도 수원시 권선구 권선로 550 (세류동, 태봉빌딩) 101호",37.2627044,127.0115603
1052,본 죽&비빔밥 일산정발산점,"경기 고양시 일산동구 일산로 452 (정발산동, 일산프라자)",37.6740494,126.7769728
1053,본 죽&비빔밥 화성조암점,경기 화성시 우정읍 조암동로10번길 13 (조암리) 101호,37.0865671,126.8227702
1054,본도시락 구리인창점,경기도 구리시 동구릉로53번길 4 (인창동),37.6054396,127.1336694
1055,본 죽&비빔밥 서판교점,"경기 성남시 분당구 운중로 140 (운중동, 메트로골드) 1층",37.3912531,127.0785396
1056,본 죽&비빔밥 성남고등점,경기 성남시 수정구 청계산로 686 (고등동) 반도아이비밸리 110호,37.4272753,127.0939366
1057,본 죽&비빔밥 기흥역점,"경기도 용인시 기흥구 기흥역로58번길 10 (구갈동, 기흥역센트럴푸르지오) 3동 108호",37.2734234,127.1198039
1058,본죽 분당수내푸른마을점,"경기도 성남시 분당구 돌마로366번길 42 (수내동, 동한프라자)",37.367179,127.1267477
1059,본 죽&비빔밥 동탄꼬모점,경기도 화성시 동탄대로 198 (산척동) 102호,37.1721233,127.1073075
1060,본죽 수원화서점,"경기 수원시 팔달구 일월로22번길 3 (화서동, 현승빌딩) 102호",37.2855577,126.9800598
1061,본 죽&비빔밥 고양화정점,"경기 고양시 덕양구 화신로272번길 3 (화정동, 대경프라자 II) 1층",37.6310206,126.8309946
1062,본설렁탕 수지상현점,"경기 용인시 수지구 광교중앙로 338 (상현동, 광교우미뉴브) R-B127호",37.3003296,127.0717872
1063,본 죽&비빔밥 봉담신도시점,경기 화성시 봉담읍 매봉로 443 1층 103호,37.2239401,126.9473799
1064,본 죽&비빔밥 남양주진접점,"경기도 남양주시 진접읍 해밀예당3로 60 (금곡리, 호평프라자) 104호",37.7151382,127.1984011
1065,본도시락 의정부민락지구점,경기도 의정부시 용민로 477 (민락동),37.7514469,127.1180681
1066,본 죽&비빔밥 화정명지병원점,경기 고양시 덕양구 화중로138번길 5-3 (화정동) 1층,37.6396339,126.832651
1067,본 죽&비빔밥 수지상현점,"경기도 용인시 수지구 만현로 110 (상현동, 원희캐슬프라자) B동 109호",37.3067226,127.0848651
1068,본죽 수원정자백설마을점,"경기도 수원시 장안구 대평로90번길 16 (정자동, 대일프라자)",37.2963253,126.9937255
1069,본죽 김포통진점,경기 김포시 통진읍 조강로 62-1 (서암리) 1층,37.6911652,126.5991506
1070,본 죽&비빔밥 마북교동마을점,"경기도 용인시 기흥구 마북로 164 (마북동, 테라스가든A빌딩) 106호",37.303958,127.1243006
1071,본도시락 안양호계점,"경기 안양시 동안구 흥안대로 94 (호계동, 리치밸리) 104호",37.3692095,126.9552292
1072,본 죽&비빔밥 시흥목감역점,"경기도 시흥시 목감우회로 39 (목감동, 목감시티프라자) 105호",37.3818829,126.8603365
1073,본도시락 경기광주경안점,경기도 광주시 중앙로 76 (역동) 1층,37.4071571,127.2603627
1074,본 죽&비빔밥 남양주가운점,"경기도 남양주시 가운로1길 1 (다산동, 드림프라자) 105호",37.604457,127.1585613
1075,본 죽&비빔밥 김포걸포점,"경기 김포시 걸포2로 83 (걸포동, 한강메트로자이1단지) 105호",37.6331164,126.7010504
1076,본도시락 경기광주태전점,"경기도 광주시 태봉로 161 (태전동, 힐스테이트 태전2차 에듀포레) 근린생활시설동 1층 109호",37.3790565,127.2321506
1077,본죽 동수원점,"경기도 수원시 팔달구 권광로 373 (우만동, 월드메르디앙 아파트) 월드메르디앙단지상가121-105호",37.2808409,127.0340698
1078,본죽 평택청북점,경기 평택시 청북읍 안청로 328 (옥길리) 104호,37.0171879,126.9159718
1079,본 죽&비빔밥 구리인창점,"경기도 구리시 건원대로34번길 25 (인창동, 신아월드코아) 제 2층 204호",37.6045869,127.1417628
1080,본 죽&비빔밥 구일산점,"경기도 고양시 일산서구 고봉로 291 (일산동, 에이스스타디움) 126호",37.6852975,126.7772742
1081,본도시락 별내점,경기도 남양주시 별내5로5번길 4-23 (별내동),37.6504525,127.1138184
1082,본도시락 서판교점,경기도 성남시 분당구 판교공원로2길 21 (판교동) 102호,37.3896693,127.0921203
1083,본 죽&비빔밥 동탄솔빛나루점,"경기도 화성시 동탄솔빛로 58 (반송동, 동유프라자) 104호",37.1937529,127.074046
1084,본도시락 원흥역점,경기도 고양시 덕양구 권율대로 690 (원흥동) 동원로열듀크2차 203동 102호,37.6508606,126.8752434
1085,본도시락 화성봉담점,경기도 화성시 봉담읍 상봉길 31 (지맨프라자) 110호,37.2175342,126.9522624
1086,본 죽&비빔밥 의정부금오점,"경기도 의정부시 청사로47번길 15 (금오동, 골드피아) 104호",37.7521557,127.0690095
1087,본 죽&비빔밥 이천점,경기도 이천시 서희로59번길 3-2 (창전동) 2층,37.2807833,127.4424744
1088,본도시락 부천상동점,"경기도 부천시 송내대로265번길 17 (상동, 효성프라자) 104호",37.5068658,126.7579769
1089,본죽 부천범박점,"경기도 부천시 범안로 118 (범박동, 신한은행365) 영플러스 101호",37.471349,126.8089631
1090,본도시락 산본점,"경기도 군포시 번영로 508 (금정동, 신산빌딩) 104호",37.3579274,126.9339084
1091,본도시락 시흥시청점,"경기도 시흥시 시청로68번길 10 (장현동, 봉빈빌딩) 102호",37.3809401,126.8008251
1092,본도시락 부천옥길점,"경기도 부천시 범안로219번길 19 (옥길동, 부천옥길자이) 상가 203호",37.4639621,126.8126655
1093,본 죽&비빔밥 안산고잔법원점,"경기도 안산시 단원구 광덕서로 78 (고잔동, 대한법조) 대한법조타운 118호",37.3116444,126.8277985
1094,본 죽&비빔밥 시흥시화점,"경기도 시흥시 중심상가2길 8 (정왕동, 중앙빌딩) 102호",37.3457285,126.7362489
1095,본 죽&비빔밥 시흥배곧타운점,"경기도 시흥시 배곧4로 32-9 (정왕동, 골든프라자) 111호",37.3768086,126.7272129
1096,본 죽&비빔밥 화성송산점,경기도 화성시 수노을중앙로 136 (새솔동) 메가타워 109호,37.2847159,126.8182138
1097,본죽 부천도당점,"경기도 부천시 삼작로 298 (도당동, 대영빌딩)",37.5200354,126.7948706
1098,본도시락 하남미사점,경기도 하남시 미사강변중앙로111번길 58 (풍산동),37.5585039,127.1905672
1099,본죽 남양주월산점,경기도 남양주시 화도읍 경춘로2290번길 4 (남양주월산사랑으로부영1단지) 101호,37.6559729,127.341882
1100,본죽 김포양곡점,경기도 김포시 양촌읍 양곡2로 30 (김포메디컬시티) 103호,37.6540901,126.6275722
1101,본 죽&비빔밥 김포풍무역점,경기도 김포시 유현로238번길 31 (풍무동) 웅신타워 109호,37.6113971,126.7328464
1102,본 죽&비빔밥 용인동백역점,"경기도 용인시 기흥구 동백3로11번길 8-1 (중동, 제일프라자) 1층",37.2697607,127.1538906
1103,본죽 별내로데오점,"경기도 남양주시 별내3로 66 (별내동, 오션타워) 104호",37.6467053,127.1212147
1104,본 죽&비빔밥 고양향동점,경기도 고양시 덕양구 향기4로 1 (향동동) (중흥메디프라자) 109호,37.6006999,126.8952168
1105,본도시락 안양동점,경기도 안양시 만안구 박달로 541 (박달동),37.4027451,126.9127386
1106,본죽 용인동천래미안점,"경기도 용인시 수지구 동천로113번길 10 (동천동, 한빛마을래미안이스트팰리스2단지) 상가동2블럭 14호",37.3367567,127.0904508
1107,본죽 화성남양점,경기도 화성시 남양읍 남양성지로 177,37.2113006,126.8214983
1108,본도시락 시흥은계점,"경기도 시흥시 대은로103번길 7 (대야동, 신화프라자) 102호",37.4462056,126.7986188
1109,본 죽&비빔밥 광명역점,"경기도 광명시 덕안로77번길 5 (일직동, 지웰에스테이트) 1층 103호",37.4214598,126.8844454
1110,본 죽&비빔밥 미사역점,"경기도 하남시 미사강변남로 103 (망월동, 미사랑데르Ⅲ) 113호",37.5610822,127.1932982
1111,본도시락 다산중앙점,"경기도 남양주시 다산순환로 355 (다산동, 으뜸웰 타워) 으뜸웰타워 204 호",37.6251993,127.1561123
1112,본도시락 다산지금점,"경기도 남양주시 다산지금로 124-73 (다산동, 다산지금지구F3-3-4)",37.6011857,127.172765
1113,본 죽&비빔밥 용인마평점,"경기도 용인시 처인구 금령로 147 (마평동, 한솔빌딩)",37.2351191,127.2126604
1114,본 죽&비빔밥 성남중앙병원점,경기도 성남시 중원구 산성대로476번길 6 (금광동) 1층,37.4537319,127.1614828
1115,본죽 평택팽성점,경기도 평택시 팽성읍 동서촌로 73,36.9647841,127.0601904
1116,본 죽&비빔밥 고양신원점,경기도 고양시 덕양구 신원로1길 22 (신원동),37.6625354,126.8891237
1117,본 죽&비빔밥 용인물푸레마을점,경기도 용인시 기흥구 구성3로28번길 32 (청덕동) 일월프라자 107호,37.2964488,127.1521324
1118,본 죽&비빔밥 용인한숲점,경기도 용인시 처인구 남사면 한숲로 45 1층 126호 (한숲스퀘어옐로우),37.1528184,127.1700465
1119,본 죽&비빔밥 시흥은계점,"경기도 시흥시 은계번영길 5 (은행동, 은계푸리마타워) 은계푸리마타워 103호",37.4369143,126.801612
1120,본 죽&비빔밥 부천역점,"경기도 부천시 부일로 448 (심곡동, 프리존빌딩) 1층 103호",37.4859817,126.7802076
1121,본도시락 평택소사벌점,경기도 평택시 비전4로 47 (비전동) 106호,37.0024639,127.1145754
1122,본 죽&비빔밥 전곡점,경기도 연천군 전곡읍 전곡로 147,38.025281,127.068558
1123,본 죽&비빔밥 수원천천점,"경기도 수원시 장안구 만석로5번길 12-10 (천천동, 중앙프라자)",37.2954938,126.9830872
1124,본도시락 수원고색산업단지점,"경기도 수원시 권선구 산업로156번길 142-10 (고색동, 수원벤처밸리∥) A-111호",37.238445,126.9864565
1125,본 죽&비빔밥 이천마장점,경기도 이천시 마장면 오천로 49 마장더퍼스트 1층,37.2528337,127.3533988
1126,본죽 광명하안점,"경기도 광명시 하안로 294-9 (하안동, 양정빌딩) 104호",37.462547,126.880998
1127,본 죽&비빔밥 고양원당점,경기도 고양시 덕양구 호국로 780 (성사동) 1층,37.6558497,126.8357017
1128,본 죽&비빔밥 가평점,경기도 가평군 가평읍 가화로 116,37.8300626,127.513817
1129,본죽 시흥삼미시장점,"경기도 시흥시 삼미시장1길 19 (신천동, 늘푸른교회) 삼미상가 A-106",37.4406085,126.7839241
1130,본설렁탕 안산선부점,경기도 안산시 단원구 선부광장1로 56 (선부동),37.336609,126.810717
1131,본죽 성남신흥동점,"경기도 성남시 수정구 공원로 322 (신흥동, 신동아파라디움) 101호",37.4433206,127.152081
1132,본죽 부천라일락마을점,"경기도 부천시 도약로 25 (상동, 대동프라자) 102호",37.5127897,126.7518924
1133,본 죽&비빔밥 신갈강남병원점,경기도 용인시 기흥구 신구로12번길 9 (구갈동),37.2735849,127.110361
1134,본설렁탕 산본점,"경기도 군포시 광정로 68 (산본동, 세종빌딩) 2층 204호",37.359255,126.9304011
1135,본죽 하남시청점,"경기도 하남시 대청로 15 (신장동, 오피스텔트레벨) 1층 103호",37.5405827,127.2139314
1136,본 죽&비빔밥 행신롯데마트옆점,"경기도 고양시 덕양구 중앙로558번길 7-4 (행신동, 행신동비전프라자)",37.6242538,126.8357008
1137,본도시락 분당정자점,"경기도 성남시 분당구 성남대로 393 (정자동, 두산위브파빌리온) B동 102호",37.3716373,127.1071715
1138,본죽 양주덕계점,경기도 양주시 평화로 1432 (덕계동),37.8186252,127.0463725
1139,본 죽&비빔밥 고양능곡점,"경기도 고양시 덕양구 토당로 115 (토당동, 금호프라자)",37.6257722,126.8172191
1140,본도시락 수원아주대점,"경기도 수원시 영통구 월드컵로 185 (원천동, 캠퍼스빌)",37.2787176,127.0453032
1141,본 죽&비빔밥 남양주덕소점,경기도 남양주시 와부읍 덕소로97번길 13 이레빌딩 201호,37.5861275,127.2136656
1142,본 죽&비빔밥 수원율전점,경기도 수원시 장안구 서부로 2113 (율전동) 1층,37.297404,126.9704999
1143,본 죽&비빔밥 수원권선점,경기도 수원시 권선구 덕영대로1201번길 36 (권선동) 1층,37.2507755,127.0230581
1144,본 죽&비빔밥 죽전현대홈타운점,"경기도 용인시 수지구 현암로 119 (죽전동, 죽전메디뷰) 102호",37.3319445,127.1224472
1145,본도시락 판교테크노벨리점,"경기도 성남시 분당구 판교역로 230 (삼평동) 삼환하이펙스 B동 제지1층 102호,102-1호",37.4012225,127.1105085
1146,본죽 화성사강점,경기도 화성시 송산면 사강시장길 68,37.2135714,126.7373691
1147,본도시락 수원호매실점,경기도 수원시 권선구 금곡로 201 (금곡동) 105호,37.2741216,126.9523202
1148,본 죽&비빔밥 양주옥정점,경기도 양주시 옥정로 196 (옥정동),37.8189751,127.0921402
1149,본 죽&비빔밥 일산주엽점,"경기도 고양시 일산서구 중앙로 1413 (주엽동, 동영빌딩) 105호",37.6690646,126.7628048
1150,본 죽&비빔밥 남양주마석점,경기도 남양주시 화도읍 맷돌로91번길 4-18,37.6581137,127.3015104
1151,본도시락 화성남양점,경기도 화성시 남양읍 시청로 54 골드프라자 101호,37.2048078,126.8211612
1152,본죽 성남수진역점,"경기도 성남시 수정구 산성대로 207 (신흥동, 에드모스)",37.4380522,127.1407776
1153,본 죽&비빔밥 수원호매실휴먼시아점,경기도 수원시 권선구 금곡로 112 (금곡동) 이수프라자 103호,37.273964,126.9425276
1154,본 죽&비빔밥 위례역점,"경기도 성남시 수정구 위례광장로 21-6 (창곡동, 정프라자) 103호",37.466008,127.1398756
1155,본 죽&비빔밥 수원탑동점,경기도 수원시 권선구 탑동로 61 (탑동),37.2743566,126.9736058
1156,본 죽&비빔밥 오산시청점,"경기도 오산시 성호대로 123 (오산동, 오산그린프라자) 102호 1층",37.1490405,127.0752033
1157,본설렁탕 판교테크노밸리점,"경기도 성남시 분당구 판교역로 231 (삼평동, 에이치스퀘어 에스동) 1층 131호",37.4013231,127.1086567
1158,본죽 김포마산점,경기도 김포시 김포한강8로 167 (마산동) 이루프라자 105호,37.6374223,126.6436929
1159,본 죽&비빔밥 동삭센트럴자이점,"경기도 평택시 상서재로 55 (동삭동, 평택센트럴자이3단지)",37.0214999,127.1006734
1160,본도시락 남양주진접점,경기도 남양주시 진접읍 해밀예당3로 93 (리원프라자),37.7179921,127.1970532
1161,본 죽&비빔밥 광교법조타운점,경기도 수원시 영통구 광교중앙로248번길 40 (하동) 101호 (광교스마트법조프라자),37.2910799,127.0659769
1162,본 죽&비빔밥 동탄호수공원점,경기도 화성시 동탄순환대로 127-5 (산척동) 1층,37.1660899,127.1072809
1163,본도시락 수원성균관대점,"경기도 수원시 장안구 서부로2126번길 30 (율전동, 삼전상가) 삼전상가 나동9호",37.2977728,126.9730392
1164,본도시락 분당서현점,"경기도 성남시 분당구 황새울로312번길 20 (서현동, 분당태성빌딩) 1층",37.3830255,127.1220758
1165,본 죽&비빔밥 안산반월역점,"경기도 안산시 상록구 건건로 123 (건건동, 한맥빌딩) 3층",37.3118745,126.9047743
1166,본도시락 광교법조타운점,경기도 수원시 영통구 광교중앙로248번길 40 (하동) 광교스마트법조프라자 119호,37.2910799,127.0659769
1167,본도시락 수원경기대점,경기도 수원시 영통구 대학4로 38 (이의동),37.2988736,127.0480594
1168,본 죽&비빔밥 동탄산척점,경기 화성시 동탄순환대로 253 (산척동) 모닝그레이스빌딩 107호,37.1702673,127.1183908
1169,본 죽&비빔밥 용인흥덕점,"경기도 용인시 기흥구 흥덕중앙로 59 (영덕동, 용인흥덕노블레스흥덕노블레스) 1층",37.2764914,127.0737226
1170,본 죽&비빔밥 동탄목동점,경기도 화성시 왕배산2길 4-16 (목동),37.1803445,127.1245359
1171,본 죽&비빔밥 신중동점,"경기도 부천시 중동로248번길 86 (중동, 탑프라자) 104호",37.5009261,126.7734997
1172,본죽 시흥은행점,"경기도 시흥시 대은로 92 (은행동, 대양빌딩) 103호",37.4449581,126.7986334
1173,본 죽&비빔밥 수원호매실화홍병원점,경기도 수원시 권선구 호매실로90번길 86 (호매실동) 호매실가든주차타워 104호,37.2594658,126.9642511
1174,본 죽&비빔밥 경기안성점,경기도 안성시 백성1길 20 (대천동),37.0087127,127.2688296
1175,본 죽&비빔밥 파주야당역점,경기도 파주시 경의로 1056 (야당동) 아이플랙스 1층 115호,37.7117681,126.7595841
1176,본죽 광주쌍령점,"경기도 광주시 경충대로 1430 (쌍령동, 대광로제비앙) (B06호)",37.3982055,127.2755833
1177,본죽 구리수택점,경기도 구리시 검배로 55 (수택동) 102호,37.5971591,127.1452199
1178,본도시락 양주옥정점,경기도 양주시 옥정로 147 (옥정동),37.8151024,127.0901474
1179,본 죽&비빔밥 파주금촌점,"경기도 파주시 중앙로 303 (금촌동, 재성빌딩)",37.762641,126.7753483
1180,본 죽&비빔밥 안성당왕점,"경기도 안성시 고수2로 18 (당왕동, 대우경남아파트) 대우경남아파트 상가 103, 104호",37.0146861,127.2585044
1181,본죽 백현점,"경기도 성남시 분당구 동판교로 58 (백현동, 나이스프라자) 나이스프라자 1층",37.3879097,127.1152273
1182,본 죽&비빔밥 동탄점,"경기도 화성시 동탄반석로 196 (반송동, 아이프라자) 114호",37.206105,127.0724294
1183,본 죽&비빔밥 성남금광점,"경기도 성남시 중원구 광명로 325 (금광동, 대성빌딩) 1층",37.4455382,127.1620661
1184,본도시락 부천중동점,"경기도 부천시 신흥로 173 (중동, 중동아크로텔) 112호",37.4990988,126.77678
1185,본죽 평택이충2지구점,"경기도 평택시 이충로35번길 22 (이충동, 뜨란프라자) 105호",37.0598138,127.0667461
1186,본도시락 광교중앙점,"경기도 수원시 영통구 센트럴타운로 107 (이의동, 광교푸르지오월드마크) 204동 제B25호",37.292027,127.0483378
1187,본도시락 파주금릉점,경기도 파주시 금빛로 12 삼성프라자 101호,37.7511049,126.7672521
1188,본죽 서동탄역점,경기도 화성시 남여울3길 3 (능동) 108호,37.1990502,127.0532282
1189,본도시락 포천이동점,"경기도 포천시 이동면 화동로 2058 ,1층",38.0315713,127.3667603
1190,본죽 수원신동점,경기도 수원시 영통구 삼성로 11 래미안 영통마크원 2단지 215동 108호,37.2464785,127.045963
1191,본죽 남양주사능점,경기도 남양주시 진건읍 진건오남로 75,37.6574911,127.1780369
1192,본도시락 구리수택점,경기도 구리시 검배로 55 (수택동) 하이스트빌 1층 109호,37.5971591,127.1452199
1193,본죽 의정부성모병원점,경기도 의정부시 금오로 121-8 (금오동),37.7578556,127.0787957
1194,본 죽&비빔밥 평촌스마트스퀘어점,"경기도 안양시 동안구 시민대로327번길 7 (관양동, 대명글로벌비즈스퀘어 125호)",37.3965366,126.966122
1195,본죽 시흥시화병원점,경기도 시흥시 정왕대로 64 메가쇼핑몰 117호,37.3542659,126.7235246
1196,본죽 산본점,경기도 군포시 번영로 505 산본대우디오플러스 103호,37.3587974,126.9332061
1197,본죽 화성시청점,"경기도 화성시 남양읍 시청로 109 ,103호",37.2011894,126.8257613
1198,본도시락 안성점,경기도 안성시 아양로 4 1층 (석정동),37.0090506,127.2636115
1199,본죽 용인양지점,경기도 용인시 처인구 양지면 양지로 156,37.2341945,127.2855118
1200,본죽 경기광주신현점,경기도 광주시 오포읍 신현로 51,37.3608578,127.1525281
1201,본도시락 용인역북점,경기도 용인시 처인구 명지로60번길 8-14 (역북동) 1층,37.2322192,127.1880323
1202,본죽 수원연무점,경기도 수원시 장안구 연무로 48-2 (연무동),37.2953569,127.026517
1203,본죽 안산부곡점,경기도 안산시 상록구 부곡로 118,37.3324267,126.8633492
1204,본죽 군포G샘병원점,경기도 군포시 군포로 581 (당동) 1층,37.3577479,126.9474968
1205,본죽 남양주호평점,경기도 남양주시 늘을1로16번길 29 (호평동) 늘봄빌딩 107호,37.6540889,127.2433205
1206,본 죽&비빔밥 파주운정신도시점,경기도 파주시 미래로 369-71 동방프라자 1층 106호,37.7110654,126.7449653
1207,본도시락 역곡점,"경기도 부천시 지봉로 100 (역곡동, 청호빌딩) 1층",37.4878654,126.810379
1208,본죽 일산중산점,경기도 고양시 일산동구 중산로 244 (중산동) 고은프라자 106호,37.6937527,126.7809023
1209,본도시락 의정부시청점,"경기도 의정부시 둔야로33번길 22, 지상1층",37.7391175,127.038465
1210,본죽 양주GS자이점,경기도 양주시 삼숭로38번길 71 (삼숭동) 양주프라자 2상가 제2층,37.7967976,127.1051769
1211,본죽 평택이충동점,경기도 평택시 송탄로40번길 79-26 (이충동) 굿스마트빌 101호,37.0520615,127.056828
1212,본 죽&비빔밥 병점진안점,경기도 화성시 효행로 1059 (진안동),37.2147367,127.0426677
1213,본 죽&비빔밥 동탄청계점,경기도 화성시 동탄대로시범길 148-54 (청계동) A동 201호,37.2005425,127.1137164
1214,본죽 파주금릉역점,경기도 파주시 금빛로 27 광장프라자 1층106호 (금촌동),37.7522071,126.7662948
1215,본죽 시흥정왕역점,경기도 시흥시 마유로418번길 24 (정왕동) 101호,37.3510733,126.7434929
1216,본도시락 안산선부점,"경기도 안산시 단원구 달미로 64 (선부동, 롯데마트) 상가동113호",37.3414187,126.8154973
1217,본죽 명학역점,경기도 안양시 만안구 안양로 145,37.3872351,126.9306674
1218,본 죽&비빔밥 판교역점,경기도 성남시 분당구 대왕판교로606번길 31 (삼평동) 112호~114호,37.3966909,127.1106823
1219,본죽 시흥하상동점,경기도 시흥시 연성로 93 금호프라자(하상2길 15) 106호,37.3909774,126.8138346
1220,본죽 수원한일타운점,경기도 수원시 장안구 송원로 83 (조원동) 메가플러스3차 113호,37.3024629,127.0095499
1221,본죽 부천중동점,"경기도 부천시 소향로 135 (중동, 부일빌딩) 1층 107호",37.5023499,126.7629689
1222,본 죽&비빔밥 수원역사직영점,"경기도 수원시 팔달구 덕영대로 924 (매산로1가, AK플라자)",37.2656796,127.0002404
1223,본죽 수원권선롯데마트점,"경기도 수원시 권선구 세권로304번길 62 (권선동, 베스토아) 114-1호",37.2496292,127.0354784
1224,본도시락 수원역점,"경기도 수원시 팔달구 매산로 51 (매산로2가, 동인트루빌3오피스텔) 1층 103호",37.2691881,127.0068648
1225,본죽 오산궐동점,경기도 오산시 궐리사로 53,37.1597095,127.0584006
1226,본죽 용인신봉점,경기도 용인시 수지구 신봉2로 3 (신봉동) 107호,37.3233263,127.0773717
1227,본도시락 성남시청점,경기도 성남시 중원구 양현로405번길 7 신야탑푸르지오시티2,37.4176573,127.1268995
1228,본 죽&비빔밥 분당롯데점,경기도 성남시 분당구 백현로101번길 12 (수내동) 세인프라자 106호,37.3767516,127.1123595
1229,본도시락 용인기흥구청점,"경기도 용인시 기흥구 구갈로60번길 1 (구갈동, 오래메디칼센타) 1층 103호",37.2798505,127.1115354
1230,본죽 경기평택점,경기도 평택시 중앙2로 26 (평택동) 1층,36.9913986,127.08982
1231,본죽 평촌학원가점,"경기도 안양시 동안구 평촌대로 140 (평촌동, 아트상가빌딩) 103호",37.3847545,126.9599982
1232,본도시락 안산고잔점,경기도 안산시 단원구 광덕대로 130 101호,37.3081081,126.8306398
1233,본 죽&비빔밥 미사센트럴점,"경기도 하남시 미사강변대로 80 (풍산동, 그린프라자) 104호",37.5570376,127.1878551
1234,본도시락 광명사거리역점,경기도 광명시 오리로 1013 (광명동),37.4803054,126.850733
1235,본 죽&비빔밥 경기광주점,경기도 광주시 광주대로 11-26 (역동) 1층,37.4082917,127.25948
1236,본 죽&비빔밥 안산상공회의소점,"경기도 안산시 단원구 적금로 120 (고잔동, 안산상공회의소)",37.318855,126.826504
1237,본 죽&비빔밥 위례창곡점,"경기도 성남시 수정구 위례동로 147 (창곡동, 위례건아타워)",37.4730816,127.15011
1238,본죽 의정부낙양점,"경기도 의정부시 용민로 407 (낙양동, 한덕프라자) 101호",37.7556234,127.1135956
1239,본도시락 모란점,경기도 성남시 중원구 제일로 41 (성남동) 1층,37.430629,127.1363923
1240,본죽 용인기흥점,"경기도 용인시 기흥구 덕영대로2077번길 16 (영덕동, 대정프라자) 106호",37.2681782,127.0966127
1241,본죽 수원권선시장점,경기도 수원시 권선구 세권로 190 (권선동) 1층,37.2553355,127.0249312
1242,본 죽&비빔밥 향남2지구점,경기도 화성시 향남읍 상신하길로328번길 8-13 106호,37.1167375,126.9119596
1243,본도시락 오산세교점,경기도 오산시 문헌공로 9 (금암동) G플레이스 108호,37.1747457,127.0512041
1244,본죽 여주가남점,경기도 여주시 가남읍 태평로 40,37.2037697,127.5452094
1245,본죽 동탄영천점,경기도 화성시 동탄순환대로702번지 성산타워B102호,37.2073301,127.1110123
1246,본 죽&비빔밥 파주산내마을점,경기도 파주시 책향기로 573 (목동동) 월드타워3 111호,37.7277937,126.7343815
1247,본도시락 파주운정점,경기도 파주시 미래로 369-58 (동패동) 삼융프라자II 101호,37.7117457,126.744466
1248,본죽 안산성포동점,경기도 안산시 상록구 화랑로 514 (성포동) 119호,37.3201736,126.8448586
1249,본도시락 동탄점,"경기도 화성시 메타폴리스로 47-7 (반송동, 서해더블루) 서해그랑블 110호",37.2022262,127.0723224
1250,본도시락 오산시청점,경기도 오산시 성호대로 130 (원동) 중앙시티월 118호,37.148478,127.075638
1251,본죽 분당오리무지개점,경기도 성남시 분당구 구미로 60 (구미동),37.337805,127.115704
1252,본죽 구리토평점,경기도 구리시 장자대로 74 (수택동) 새롬프라자8차 110호,37.5872491,127.1387677
1253,본 죽&비빔밥 의정부민락중앙점,경기도 의정부시 천보로 38 (민락동) 파스텔시티 116호,37.7440418,127.0968731
1254,본죽 수원망포점,"경기도 수원시 영통구 영통로 136 (망포동, 센트럴타워) 118-1호",37.2396921,127.0561768
1255,본 죽&비빔밥 부천상동점,"경기도 부천시 상동로 84 (상동, 영플러스) 105, 106호",37.5045026,126.7534925
1256,본죽 여주점봉점,경기도 여주시 세종로 391 (점봉동) 1층,37.2637959,127.6406695
1257,본죽 화성봉담점,경기도 화성시 봉담읍 동화길 91 웅신아트플라자 103호,37.2165671,126.9588129
1258,본도시락 수원망포역점,경기도 수원시 영통구 영통로 169 (망포동) 1층,37.2426536,127.0550022
1259,본죽 동탄한림대병원점,"경기도 화성시 삼성1로 150 (석우동, 석진 파아란 오피스텔) 114호",37.2173686,127.0783805
1260,본 죽&비빔밥 대화역점,"경기도 고양시 일산서구 강성로 247 (대화동, 명진프라자빌딩) 107호",37.6761101,126.7494072
1261,본죽 수원오목천점,경기도 수원시 권선구 오목천로 59 1층 102호(오목천동),37.2402484,126.9690138
1262,본도시락 용인동백점,경기도 용인시 기흥구 동백5로 23 (중동) 동백명진프라자 1층 101호,37.276456,127.1522743
1263,본죽 분당미금점,경기도 성남시 분당구 돌마로 79 (금곡동) 썬프라자 105호,37.3503982,127.1107975
1264,본도시락 하남시청점,"경기도 하남시 하남대로 747,1층 151호 (신장동,하남두산위브파크)",37.538291,127.2123518
1265,본도시락 일산원마운트점,경기도 고양시 일산서구 한류월드로 300 원마운트 1228호,37.6645742,126.7545357
1266,본죽 산본제일병원점,경기도 군포시 산본로 394 대림프라자 1층 105호,37.3651307,126.9297429
1267,본죽 일산탄현점,경기도 고양시 일산서구 일현로 56 (탄현동) 삼정프라자 110호,37.6919338,126.7637324
1268,본도시락 한세대점,"경기도 군포시 고산로151번길 8 (당정동, 당정메디컬빌딩) 당정메디컬빌딩 106호",37.3478871,126.955108
1269,본 죽&비빔밥 수원영통벽적골점,"경기도 수원시 영통구 덕영대로1555번길 16 (영통동, 벽적골롯데아파트) 벽적골롯데아파트상가 135호",37.2467959,127.0615894
1270,본 죽&비빔밥 분당야탑점,"경기도 성남시 분당구 야탑로69번길 8 (야탑동, 한주코아) 101호",37.4105245,127.1268269
1271,본도시락 시흥정왕점,"경기도 시흥시 중심상가로 161 (정왕동, 그라미아빌딩) 104호",37.3460765,126.7339113
1272,본 죽&비빔밥 시흥목감조남점,경기도 시흥시 목감남서로 9-27 (조남동) 키움프라자 112호,37.3779464,126.8534361
1273,본죽 안산고잔이마트점,경기도 안산시 단원구 원포공원1로 35 단원프라자 107호,37.3018555,126.8125216
1274,본 죽&비빔밥 안양덕천래미안점,"경기도 안양시 만안구 태평로60번길 42 (안양동, 센트럴타워2) 105호",37.3963333,126.9307467
1275,본죽 용인보라점,경기도 용인시 기흥구 사은로 116 현대프라자 106호,37.2556961,127.1176609
1276,본도시락 김포풍무점,경기도 김포시 승가로 4 1층 (풍무동),37.6067887,126.7219529
1277,본죽 김포전원마을점,경기도 김포시 김포한강11로 133 (장기동) 중앙프라자 102호,37.6457654,126.6813809
1278,본 죽&비빔밥 성남상대원점,경기도 성남시 중원구 희망로 336 (상대원동),37.4357938,127.1583918
1279,본죽 파주운정점,"경기도 파주시 미래로 622 (와동동, 대흥프라자) 108호",37.7326811,126.7509613
1280,본죽 의정부신곡점,"경기도 의정부시 발곡로 24,서울프라자 1층",37.7310909,127.0575011
1281,본도시락 김포장기점,"경기도 김포시 초당로16번길 102-3 (장기동, 조은타워투)",37.6393311,126.6737533
1282,본죽 군포당동점,경기도 군포시 고산로 256 금강프라자 102호,37.3465627,126.9443739
1283,본죽 일산풍동점,"경기도 고양시 일산동구 숲속마을1로 76 (풍동, 힘찬프라자) 105호",37.6677513,126.8003854
1284,본죽 김포구래점,경기도 김포시 김포한강9로76번길 41 (구래동) 연세프라자 107호,37.6444388,126.6272467
1285,본죽 부천송내역점,경기도 부천시 원미구 부일로205번길 54 (상동) 상동아크로텔 116호,0.0,0.0
1286,본죽 시흥정왕1동점,경기도 시흥시 중심상가로 326 엘림빌딩 101호,37.3367056,126.7482336
1287,본죽 안산사동점,"경기도 안산시 상록구 감골2로 43 (사동, 요진아파트요진중심상가)",37.2906697,126.8514632
1288,본죽 문산당동점,경기도 파주시 문산읍 방촌로 1719 센터프라자 105호,37.8660962,126.7843809
1289,본 죽&비빔밥 광명소하지구점,경기도 광명시 금하로 464 (소하동) 메이저리치안 102호,37.4484547,126.8840403
1290,본도시락 미금점,경기도 성남시 분당구 성남대로172번길 12 (금곡동) 현대아리온오피스텔 1층 4호,37.3509802,127.1104674
1291,본 죽&비빔밥 미사점,"경기도 하남시 미사강변대로 216 (망월동, 한강트윈프라자2) 103호",37.5689885,127.1845417
1292,본도시락 시흥배곧점,"경기도 시흥시 서울대학로264번길 44-4 (정왕동, 에스프라자) 104호",37.367171,126.7282414
1293,본도시락 안양평촌점,"경기도 안양시 동안구 시민대로327번길 6 (관양동, W에이스타워) 119호",37.3966654,126.9670075
1294,본 죽&비빔밥 용인역북점,경기도 용인시 처인구 명지로40번길 4 (역북동) 1층 103호,37.2327102,127.1881068
1295,본 죽&비빔밥 동탄역점,경기도 화성시 동탄대로 489 (오산동) 동탄우성KTX타워 112호,37.1973592,127.0982637
1296,본죽 양평용문점,경기도 양평군 용문면 용문로 377,37.4858196,127.594996
1297,본 죽&비빔밥 광교아브뉴프랑점,경기도 수원시 영통구 센트럴타운로 85 광교c1호반베르디움,37.2907368,127.0504529
1298,본 죽&비빔밥 성남모란시장점,경기도 성남시 중원구 성남대로 1133 성남 메트로칸,37.4310405,127.128633
1299,본죽 산본사거리점,"경기도 군포시 금산로 109 (산본동, 산본두성프라자) 101호",37.3715667,126.9358659
1300,본죽 안양석수역점,"경기도 안양시 만안구 연현로 101 (석수동, 연현씨티빌) 연현시티빌 1층",37.4331475,126.9021433
1301,본죽 수원대점,경기도 화성시 봉담읍 와우로 90 토마토쇼핑상가,37.2134795,126.9757468
1302,본죽 평택용죽점,경기 평택시 용죽3로 17 (용이동) 102호,36.9933045,127.1251615
1303,본 죽&비빔밥 경기안중점,경기도 평택시 안중읍 안현로서6길 56,36.9847395,126.923247
1304,본설렁탕 시흥정왕점,"경기도 시흥시 정왕대로 184 (정왕동, 한성타운) 106~109호",37.3474799,126.7344177
1305,본도시락 안양인덕원점,경기도 의왕시 봇들2길 12 (포일동) 102호,37.3974401,126.9825638
1306,본죽 의왕내손점,경기도 의왕시 계원대학로 14 계원프라자 102호,37.3794376,126.9728096
1307,본죽 의정부망월사역점,경기도 의정부시 평화로 156 (호원동) 신일상가103호,37.7055995,127.0484014
1308,본죽 수원호매실홈플러스점,경기도 수원시 권선구 금곡로 206 일반상업지역 4-1-1 1층 117호,37.2740719,126.9543297
1309,본 죽&비빔밥 동백중앙점,경기도 용인시 기흥구 동백중앙로 269 벤포스타1층,37.2767024,127.1530911
1310,본죽 일산웨스턴돔점,경기도 고양시 일산동구 정발산로 24 (장항동) 웨스턴돔 A동 111호,37.6557939,126.7721369
1311,본죽 고양삼송점,경기도 고양시 덕양구 삼송로 88 (삼송동) 326오성프라자 104호,37.6507456,126.8840222
1312,본죽 하남풍산점,경기도 하남시 덕풍동로 111-15 (덕풍동) 리치플러스 하남센터 112호,37.5514351,127.2079442
1313,본 죽&비빔밥 일산라페스타점,경기도 고양시 일산동구 무궁화로 37 (장항동) 노블리제 제1층,37.663289,126.7682073
1314,본 죽&비빔밥 부천원종동점,경기도 부천시 소사로 742 (원종동),37.5223103,126.8051268
1315,본도시락 광명소하점,경기도 광명시 한내로13번길 6-5,37.4554202,126.8829316
1316,본죽 용인수지점,경기도 용인시 수지구 풍덕천로 122,37.3225277,127.0955578
1317,본죽 수원화서역점,경기도 수원시 팔달구 덕영대로 695 (화서동) 화서프라자 1층,37.2847314,126.9903191
1318,본죽 군포당동2지구점,경기도 군포시 삼성로20번길 4-6,37.3371552,126.9334725
1319,본죽 용인둔전점,경기도 용인시 처인구 포곡읍 포곡로 113 상일빌딩,37.2698734,127.2178727
1320,본 죽&비빔밥 부천시청점,"경기도 부천시 길주로 219 (중동, 드림빌딩) 104호",37.5047676,126.7668009
1321,본죽 남양주진접롯데시네마점,경기도 남양주시 진접읍 해밀예당1로 30-9 폴리프라자 1층,37.7116431,127.1867779
1322,본도시락 포천송우리점,"경기도 포천시 소흘읍 송우로 75 108,109호",37.8297546,127.1407252
1323,본죽 수원인계삼성래미안점,경기도 수원시 팔달구 권광로 270 형석빌딩(인계동 365),37.2713345,127.0359152
1324,본죽 안양호계사거리점,경기도 안양시 동안구 경수대로 547 (호계동) 1층959-19 1층,37.3716528,126.9574575
1325,본 죽&비빔밥 안산중앙점,경기도 안산시 단원구 예술대학로 17(고잔동) 중앙노블레스 125호,37.3187059,126.8365081
1326,본죽 안산선부점,경기도 안산시 단원구 선부광장1로 56 1층 111호,37.336609,126.810717
1327,본죽 안양동편마을점,경기도 안양시 동안구 동편로 27번길 37,37.407823,126.9715581
1328,본도시락 수원권선점,경기도 수원시 권선구 세권로304번길 52 (권선동),37.2500925,127.0356905
1329,본죽 파주교하점,경기도 파주시 청석로 260 (동패동) 트리플메디컬타워 1층 106,37.7250679,126.7176745
1330,본죽 남양주퇴계원점,경기도 남양주시 퇴계원면 퇴계원로 21,37.6489899,127.1403884
1331,본도시락 과천점,경기도 과천시 새술막길 38 (중앙동) 중앙상가 제 1층 104호,37.4290036,126.9914427
1332,본도시락 일산대화점,"경기도 고양시 일산서구 일산로 757 (대화동, 동남아트월드) 1층",37.6758275,126.7501313
1333,본죽 수원고색동점,경기도 수원시 권선구 매송고색로 697 (고색동),37.2510088,126.9807242
1334,본도시락 수원영통점,경기 수원시 영통구 반달로7번길 16 이플러스빌딩 1층 109호,37.2526508,127.0743843
1335,본도시락 일산마두점,경기도 고양시 일산동구 중앙로 1130 올리브상가 B동 102호,37.6502467,126.7795338
1336,본 죽&비빔밥 분당제생병원점,경기도 성남시 분당구 서현로180번길 13 (서현동) 서현프라자,37.3879155,127.1228679
1337,본도시락 수원인계점,경기도 수원시 팔달구 권광로 211 동수원메디뷰,37.2662893,127.0332506
1338,본도시락 안양범계점,경기도 안양시 동안구 시민대로131번길 9,37.3884711,126.9464121
1339,본도시락 여주점,경기도 여주시 세종로 67,37.2918725,127.6361911
1340,본도시락 송탄점,경기도 평택시 서정북로 133 (서정동),37.0714778,127.0642677
1341,본도시락 송내점,경기 부천시 부일로221번길 31,37.4898868,126.7547136
1342,본도시락 김포사우점,경기도 김포시 사우중로 87,37.6224105,126.7209225
1343,본죽 김포장기점,경기도 김포시 김포한강1로51번길 28 (장기동) 레드클로벌 1동 102호,37.6441539,126.6669809
1344,본죽 광명사거리점,경기도 광명시 광명로 890 (광명동) 대명프라자 1층,37.4783365,126.854253
1345,본죽 부천약대점,경기도 부천시 원미구 중동로 383 (약대동),0.0,0.0
1346,본죽 성남시청점,경기도 성남시 수정구 수정로 208 (신흥동) 메드위즈빌딩 1층,37.4439488,127.1428186
1347,본죽 고양행신역점,경기도 고양시 덕양구 충경로 38 (행신동) 진일프라자 115호,37.6152147,126.8337344
1348,본죽 안성공도점,경기 안성시 공도읍 공도로 83 (만정리) 1층,36.9998013,127.170316
1349,본죽 수원원천점,경기도 수원시 영통구 중부대로448번길 96 (원천동) 108호,37.2671103,127.0594434
1350,본죽 안양박달비발디점,경기도 안양시 만안구 박달로 431 (박달동) 청암빌딩 104호,37.4020541,126.90053
1351,본 죽&비빔밥 용인동아솔레시티점,경기도 용인시 기흥구 보정로 32 (보정동) 지젤스포츠클럽 1층,37.3140144,127.1111013
1352,본죽 부천송내남부역점,경기도 부천시 소사구 송내대로 32 (송내동) 솔가람빌딩 1층,0.0,0.0
1353,본죽 용인광교역점,경기도 용인시 수지구 광교마을로 54 (상현동),37.2981416,127.0705375
1354,본죽 수원영통점,경기도 수원시 영통구 매영로345번길 7 (영통동) 트리플렉스,37.252766,127.070896
1355,본죽 분당효자촌점,경기도 성남시 분당구 돌마로 478 (서현동),37.3769796,127.1334348
1356,본죽 성남하대원점,경기도 성남시 중원구 둔촌대로 285 (하대원동),37.4298412,127.1497819
1357,본죽 분당서현점,경기도 성남시 분당구 분당로53번길 21 (서현동) 산호프라자 1층,37.3846835,127.122398
1358,본죽 수원곡반정동점,경기도 수원시 권선구 곡선로 38 (곡반정동),37.2389957,127.028684
1359,본죽 시흥정왕4동점,"경기 시흥시 함송로 24 (정왕동, 세종프라자) 본죽 시흥정왕4동점",37.3632231,126.7303888
1360,본죽 마북연원마을점,"경기 용인시 기흥구 용구대로 2398 (마북동, 연원마을벽산아파트) 벽산아파트주상가 105-2호",37.3003072,127.1072867
1361,본죽 포천송우점,경기도 포천시 소흘읍 송우로 38,37.8284909,127.144854
1362,본죽 공도진사점,경기도 안성시 공도읍 진사길 16,36.9926078,127.1380879
1363,본 죽&비빔밥 평촌점,경기도 안양시 동안구 관평로 170번길 33 104호,37.3930077,126.9622757
1364,본 죽&비빔밥 수원매산점,경기도 수원시 팔달구 갓매산로 51 (매산로2가) 106호,37.2689547,127.0045568
1365,본 죽&비빔밥 범계역점,경기도 안양시 동안구 시민대로 171 (비산동) 금강벤처텔 107호,37.3911445,126.9500534
1366,본 죽&비빔밥 김포운양점,경기도 김포시 김포한강11로 288-27 한강프라자 112호,37.6547929,126.6834196
1367,본 죽&비빔밥 향남점,"경기도 화성시 향남읍 발안로 112 104호 (행정리,삼성프라자)",37.1310774,126.9224645
1368,본죽 양평점,경기도 양평군 양평읍 시민로 15,37.4898308,127.4933715
1369,본죽 병점역점,경기도 화성시 병점2로 12 (병점동) 103호,37.2053396,127.0384314
1370,본죽 발안점,경기도 화성시 향남읍 삼천병마로 206 1층 2호,37.1313859,126.9105311
1371,본죽 평택포승점,경기도 평택시 포승읍 여술로43번길 5,36.9894768,126.8465825
1372,본죽 봉일천점,경기도 파주시 조리읍 봉천로 36-1,37.743798,126.8077699
1373,본죽 의정부녹양점,경기도 의정부시 비우로 89 (녹양동),37.7584518,127.0365307
1374,본죽 의정부백병원점,경기도 의정부시 금신로 323 (신곡동) 외 6필지 대영프라자,37.7447767,127.0616627
1375,본죽 의정부가능역점,경기도 의정부시 평화로 629 (의정부동),37.7481107,127.0451149
1376,본죽 의정부회룡역점,"경기도 의정부시 평화로 374 (호원동, 한승아파트) 한승상가 106호",37.7248575,127.0489124
1377,본죽 의정부역점,경기도 의정부시 행복로 19 (의정부동) 5호,37.7406031,127.0487622
1378,본죽 의정부용현점,경기도 의정부시 용민로 76 (용현동) 송산빌딩 102호,37.7373957,127.0867971
1379,본죽 포일2지구점,"경기도 의왕시 포일세거리로 3 (포일동, 파레사타워) 104호 본죽",37.3959581,126.9847483
1380,본죽 의왕삼동점,경기도 의왕시 부곡시장길 8,37.3198908,126.9498697
1381,본죽 의왕오전점,경기도 의왕시 오전로 216,37.3597773,126.967482
1382,본죽 수지성복점,경기도 용인시 수지구 성복2로 51 YK타운 데이파크 B동,37.3134799,127.0787721
1383,본죽 용인동천점,"경기도 용인시 수지구 문인로54번길 2 (동천동, 수지하우비) 상가 113호",37.3336823,127.0974591
1384,본죽 죽전벽산타운점,경기도 용인시 수지구 용구대로2801번길 7,37.3353687,127.1082488
